accessibility_caption,caption_is_edited,dimensions_height,dimensions_width,display_url,edge_media_preview_like_count,edge_media_to_comment_count,owner_followers,owner_following,owner_id,owner_is_verified,owner_posts,owner_username,shortcode,taken_at_timestamp,faceAttributes_accessories_glasses,faceAttributes_accessories_headwear,faceAttributes_accessories_mask,faceAttributes_age,faceAttributes_blur_blurLevel,faceAttributes_blur_value,faceAttributes_emotion_anger,faceAttributes_emotion_contempt,faceAttributes_emotion_disgust,faceAttributes_emotion_fear,faceAttributes_emotion_happiness,faceAttributes_emotion_neutral,faceAttributes_emotion_sadness,faceAttributes_emotion_surprise,faceAttributes_exposure_exposureLevel,faceAttributes_exposure_value,faceAttributes_facialHair_beard,faceAttributes_facialHair_moustache,faceAttributes_facialHair_sideburns,faceAttributes_gender,faceAttributes_glasses,faceAttributes_hair_bald,faceAttributes_hair_hairColor_black,faceAttributes_hair_hairColor_blond,faceAttributes_hair_hairColor_brown,faceAttributes_hair_hairColor_gray,faceAttributes_hair_hairColor_other,faceAttributes_hair_hairColor_red,faceAttributes_hair_invisible,faceAttributes_headPose_pitch,faceAttributes_headPose_roll,faceAttributes_headPose_yaw,faceAttributes_makeup_eyeMakeup,faceAttributes_makeup_lipMakeup,faceAttributes_noise_noiseLevel,faceAttributes_noise_value,faceAttributes_occlusion_eyeOccluded,faceAttributes_occlusion_foreheadOccluded,faceAttributes_occlusion_mouthOccluded,faceAttributes_smile,faceLandmarks_eyeLeftBottom_x,faceLandmarks_eyeLeftBottom_y,faceLandmarks_eyeLeftInner_x,faceLandmarks_eyeLeftInner_y,faceLandmarks_eyeLeftOuter_x,faceLandmarks_eyeLeftOuter_y,faceLandmarks_eyeLeftTop_x,faceLandmarks_eyeLeftTop_y,faceLandmarks_eyeRightBottom_x,faceLandmarks_eyeRightBottom_y,faceLandmarks_eyeRightInner_x,faceLandmarks_eyeRightInner_y,faceLandmarks_eyeRightOuter_x,faceLandmarks_eyeRightOuter_y,faceLandmarks_eyeRightTop_x,faceLandmarks_eyeRightTop_y,faceLandmarks_eyebrowLeftInner_x,faceLandmarks_eyebrowLeftInner_y,faceLandmarks_eyebrowLeftOuter_x,faceLandmarks_eyebrowLeftOuter_y,faceLandmarks_eyebrowRightInner_x,faceLandmarks_eyebrowRightInner_y,faceLandmarks_eyebrowRightOuter_x,faceLandmarks_eyebrowRightOuter_y,faceLandmarks_mouthLeft_x,faceLandmarks_mouthLeft_y,faceLandmarks_mouthRight_x,faceLandmarks_mouthRight_y,faceLandmarks_noseLeftAlarOutTip_x,faceLandmarks_noseLeftAlarOutTip_y,faceLandmarks_noseLeftAlarTop_x,faceLandmarks_noseLeftAlarTop_y,faceLandmarks_noseRightAlarOutTip_x,faceLandmarks_noseRightAlarOutTip_y,faceLandmarks_noseRightAlarTop_x,faceLandmarks_noseRightAlarTop_y,faceLandmarks_noseRootLeft_x,faceLandmarks_noseRootLeft_y,faceLandmarks_noseRootRight_x,faceLandmarks_noseRootRight_y,faceLandmarks_noseTip_x,faceLandmarks_noseTip_y,faceLandmarks_pupilLeft_x,faceLandmarks_pupilLeft_y,faceLandmarks_pupilRight_x,faceLandmarks_pupilRight_y,faceLandmarks_underLipBottom_x,faceLandmarks_underLipBottom_y,faceLandmarks_underLipTop_x,faceLandmarks_underLipTop_y,faceLandmarks_upperLipBottom_x,faceLandmarks_upperLipBottom_y,faceLandmarks_upperLipTop_x,faceLandmarks_upperLipTop_y,faceRectangle_height,faceRectangle_left,faceRectangle_top,faceRectangle_width,num_faces
Image may contain: 1 person,True,1350,1080,https://scontent-syd2-1.cdninstagram.com/vp/4dd33d81add4a110191863829936c954/5D28510A/t51.2885-15/e35/11349262_806504216125618_232560163_n.jpg?_nc_ht=scontent-syd2-1.cdninstagram.com,211,7,1,531,184518387,False,273,eldopleasesaythebaby,7kWpr2tPG3,1442141392,0.0,1.0,0.0,29.0,medium,0.55,0.0,0.0,0.0,0.0,0.001,0.999,0.0,0.0,goodExposure,0.26,0.4,0.4,0.4,male,NoGlasses,0.0,,,,,,,True,0.0,-17.6,-1.0,False,False,low,0.0,False,True,False,0.001,347.4,101.6,353.3,98.2,340.7,102.7,346.0,97.7,382.8,90.2,376.0,91.0,387.6,87.2,381.1,86.5,354.9,85.9,329.6,96.4,368.5,80.4,390.3,74.6,360.0,140.8,390.9,128.7,359.0,120.4,362.1,111.2,384.5,112.4,377.6,106.4,361.1,97.0,370.5,93.9,371.0,113.5,347.1,99.0,382.4,88.6,378.7,144.5,376.4,138.4,375.4,134.6,374.0,130.0,87,326,70,87,1
Image may contain: 1 person,True,612,612,https://scontent-syd2-1.cdninstagram.com/vp/70ca0d585efa1dfdd52ca7a80536d441/5D22370C/t51.2885-15/e35/11856681_1040449049328992_863929839_n.jpg?_nc_ht=scontent-syd2-1.cdninstagram.com,276,6,1,532,184518387,False,273,eldopleasesaythebaby,8FvwSFtPKM,1443261849,0.0,0.0,0.0,33.0,medium,0.26,0.0,0.003,0.0,0.0,0.002,0.987,0.008,0.0,goodExposure,0.63,0.1,0.4,0.4,male,NoGlasses,0.18,0.94,0.37,0.64,0.54,0.41,0.07,False,0.0,4.7,-25.7,False,False,low,0.08,False,False,False,0.002,380.2,226.0,387.8,224.5,373.6,221.8,381.2,219.4,426.1,229.0,419.2,225.7,433.1,225.7,425.7,223.0,390.2,213.1,367.9,206.0,407.0,213.3,451.1,219.5,380.2,281.6,425.6,285.1,382.6,256.1,388.9,244.9,416.9,261.2,410.0,248.1,394.6,225.0,407.8,225.5,394.9,255.2,378.2,221.8,424.1,224.6,397.3,295.3,397.3,286.3,397.7,283.6,397.6,278.4,120,340,192,120,1
Image may contain: 1 person,True,1350,1080,https://scontent-syd2-1.cdninstagram.com/vp/a698ae57048112633035629abdc15795/5CEB7B85/t51.2885-15/e35/12145349_523805374461326_785104494_n.jpg?_nc_ht=scontent-syd2-1.cdninstagram.com,238,6,1,531,184518387,False,273,eldopleasesaythebaby,8vdPLpNPAT,1444661427,0.0,1.0,0.0,29.0,low,0.0,0.0,0.007,0.007,0.0,0.405,0.204,0.376,0.0,goodExposure,0.73,0.4,0.4,0.1,male,NoGlasses,0.0,,,,,,,True,0.0,8.8,6.8,False,False,low,0.0,False,True,False,0.405,229.7,154.1,260.4,150.6,202.1,142.2,234.2,136.3,400.2,180.5,375.6,168.6,431.6,176.8,406.3,162.3,293.2,127.3,152.6,104.1,364.3,138.7,481.8,156.2,201.9,318.5,373.2,337.3,234.8,258.5,266.6,226.0,370.2,279.9,353.9,240.8,293.9,160.3,345.8,168.9,307.5,275.1,230.9,141.0,398.4,166.4,284.5,370.8,288.6,351.9,291.1,343.4,293.3,330.5,390,108,48,390,1
No photo description available.,True,612,612,https://scontent-syd2-1.cdninstagram.com/vp/c65dd2ccbacd003bb4da0ccfe25a52ad/5CEEBE21/t51.2885-15/e15/11246204_401465730055950_210731241_n.jpg?_nc_ht=scontent-syd2-1.cdninstagram.com,180,4,277,296,254199485,False,80,pasquale_92_,aosMuPRhhA,1371419946,1.0,0.0,0.0,24.0,low,0.1,0.0,0.0,0.0,0.0,1.0,0.0,0.0,0.0,goodExposure,0.65,0.1,0.1,0.1,male,Sunglasses,0.2,0.69,0.54,0.84,0.31,0.35,0.23,False,0.0,6.0,0.3,True,True,low,0.13,False,False,False,1.0,347.4,150.7,360.5,149.6,335.8,145.6,349.4,142.1,419.2,158.2,404.8,154.2,432.4,156.6,419.5,149.6,369.0,140.5,312.6,139.9,395.9,145.6,448.2,148.5,341.6,213.4,410.3,220.6,353.0,187.1,364.5,178.0,401.4,192.7,392.7,181.8,369.3,154.5,393.9,156.3,378.1,191.7,348.5,146.4,419.0,153.7,372.1,237.9,373.3,227.8,374.6,216.1,375.5,210.6,154,303,107,154,1
No photo description available.,True,612,612,https://scontent-syd2-1.cdninstagram.com/vp/e3dcf62e6c4aa8d411c139a55dcec57f/5D1C4999/t51.2885-15/e15/11357649_438961916276810_1455578186_n.jpg?_nc_ht=scontent-syd2-1.cdninstagram.com,386,13,1,530,184518387,False,273,eldopleasesaythebaby,aQuhW3NPEi,1370615857,0.0,0.0,0.0,31.0,low,0.09,0.001,0.0,0.0,0.0,0.0,0.764,0.234,0.0,goodExposure,0.64,0.1,0.1,0.1,male,NoGlasses,0.34,0.97,0.24,0.95,0.31,0.16,0.06,False,0.0,-0.9,-3.9,False,False,medium,0.39,False,False,False,0.0,276.1,137.1,280.1,135.7,271.8,136.0,276.2,133.3,304.7,136.5,300.2,135.3,308.7,134.3,304.2,132.4,284.0,130.4,265.5,131.3,295.7,128.6,316.0,129.4,277.8,173.4,304.5,172.6,279.1,156.8,283.6,150.0,300.8,156.9,296.8,150.5,286.2,136.6,293.6,136.5,290.2,157.0,276.5,135.9,304.6,134.3,291.0,180.1,290.4,175.6,289.3,171.8,289.2,168.9,75,253,117,75,1
Image may contain: 1 person,True,1350,1080,https://scontent-syd2-1.cdninstagram.com/vp/e35b2e5010ebfb6a091ee9c2cfab0876/5D07A596/t51.2885-15/e35/22582278_507137152976720_1756137326183972864_n.jpg?_nc_ht=scontent-syd2-1.cdninstagram.com,317,9,1,531,184518387,False,273,eldopleasesaythebaby,BabLGLPnz0x,1508405337,0.0,0.0,0.0,23.0,medium,0.33,0.0,0.003,0.0,0.0,0.186,0.809,0.002,0.0,goodExposure,0.74,0.1,0.1,0.1,male,NoGlasses,0.06,0.88,0.41,0.94,0.24,0.21,0.13,False,0.0,-8.0,-2.1,False,False,low,0.13,False,False,False,0.186,520.1,563.6,527.1,560.3,513.9,562.7,519.5,558.9,562.9,556.4,555.3,555.6,570.1,553.7,562.6,551.5,530.8,549.7,503.1,557.5,547.5,546.9,578.5,546.8,529.6,607.0,564.8,602.2,531.4,586.7,535.1,577.6,559.5,581.4,553.1,574.5,534.3,560.8,547.7,559.2,545.4,582.6,519.4,560.6,562.0,553.6,548.3,615.5,547.5,610.1,546.1,603.3,545.6,599.2,99,495,531,99,1
Image may contain: 2 people,True,750,750,https://scontent-syd2-1.cdninstagram.com/vp/e57794b87b5e8768e0fb62b34e0ad8b0/5D23C444/t51.2885-15/e35/12747686_539804906197832_1153454972_n.jpg?_nc_ht=scontent-syd2-1.cdninstagram.com,285,8,1,531,184518387,False,273,eldopleasesaythebaby,BB4S_H2NPBj,1455695461,0.0,0.0,0.0,1.0,medium,0.3,0.001,0.0,0.0,0.001,0.029,0.316,0.008,0.645,goodExposure,0.63,0.0,0.0,0.0,female,NoGlasses,0.1,0.3,0.84,0.61,0.34,0.46,0.39,False,0.0,-2.1,-16.4,False,False,medium,0.33,False,False,False,0.029,71.8,146.4,93.4,139.3,51.2,135.6,72.1,124.9,185.7,136.0,165.4,129.9,203.2,127.7,183.6,116.1,93.0,95.3,24.3,94.1,145.4,81.9,228.5,86.9,91.5,276.3,183.3,282.2,94.3,212.0,105.7,193.4,166.5,217.0,152.1,192.1,106.8,140.7,136.3,138.4,121.3,216.9,73.9,132.5,184.0,124.0,130.1,328.0,128.7,302.2,126.1,269.4,126.9,250.4,289,0,59,276,1
Image may contain: 3 people,False,750,750,https://scontent-syd2-1.cdninstagram.com/vp/36ee90e40bae9113631c8e966d444f95/5D254B08/t51.2885-15/e35/23347857_145112766117197_4590817360746643456_n.jpg?_nc_ht=scontent-syd2-1.cdninstagram.com,58,1,1,409,8125185,False,332,fahrizaim,BbSbUaCFTbn,1510259336,0.0,0.0,0.0,46.0,medium,0.55,0.001,0.0,0.0,0.0,0.0,0.998,0.001,0.0,overExposure,0.88,0.1,0.1,0.1,male,NoGlasses,0.94,,,,,,,False,0.0,-9.3,15.1,False,False,medium,0.56,False,False,False,0.0,280.6,114.6,284.9,113.0,276.7,112.8,280.6,110.2,307.0,111.0,302.7,110.2,309.8,108.0,306.3,106.8,285.6,103.1,267.3,107.6,300.7,101.4,314.3,100.7,285.2,149.4,311.5,146.1,288.7,134.5,291.3,127.9,308.4,130.1,304.2,124.7,290.7,113.4,298.0,112.2,300.4,132.6,281.5,112.1,306.5,108.7,300.3,152.7,300.1,149.8,300.6,147.3,300.5,145.1,73,261,93,73,4
Image may contain: 2 people,True,750,750,https://scontent-syd2-1.cdninstagram.com/vp/5340a529b44ae251a9fbd97401c18724/5D1BCA20/t51.2885-15/e35/12822404_1134309463268912_294458428_n.jpg?_nc_ht=scontent-syd2-1.cdninstagram.com,9,1,513,2,2951545691,False,842,morelcia_morelli,BC4LiUsCtPZ,1457839039,0.0,0.0,0.0,27.0,low,0.05,0.0,0.0,0.0,0.0,0.991,0.009,0.0,0.0,goodExposure,0.71,0.0,0.0,0.0,female,NoGlasses,0.02,0.55,0.23,1.0,0.06,0.07,0.52,False,0.0,-1.7,22.4,True,True,high,0.77,False,False,False,0.991,123.1,260.9,152.9,253.1,95.6,246.5,125.3,233.5,275.9,260.7,250.4,256.2,295.0,248.7,272.6,236.8,192.2,227.2,51.4,223.1,247.1,228.9,325.9,213.9,130.3,386.7,266.5,385.2,169.3,345.3,186.0,325.1,260.2,342.3,247.1,321.9,188.0,260.9,231.7,261.5,228.7,351.8,123.1,242.7,271.6,245.8,209.4,423.4,208.7,405.0,214.3,404.1,216.2,393.7,320,44,159,320,2
Image may contain: 1 person,True,1080,1080,https://scontent-syd2-1.cdninstagram.com/vp/cc10232a246bb61a20347ccf5217f9aa/5D26A63C/t51.2885-15/e35/12784020_1720274498208179_870081950_n.jpg?_nc_ht=scontent-syd2-1.cdninstagram.com,13,3,513,2,2951545691,False,842,morelcia_morelli,BC5pxwoitMR,1457888448,0.0,0.0,0.0,22.0,medium,0.75,0.0,0.0,0.0,0.0,0.0,0.999,0.001,0.0,goodExposure,0.53,0.0,0.0,0.0,female,NoGlasses,0.07,0.12,0.95,0.96,0.21,0.11,0.34,False,0.0,-8.1,-9.3,True,True,high,0.78,False,False,False,0.0,271.9,473.9,293.5,464.0,248.8,467.4,267.0,454.2,419.8,446.6,393.4,443.9,440.9,430.9,416.9,427.1,297.3,422.6,194.2,432.7,356.5,417.2,485.2,394.7,293.9,629.1,439.2,605.8,306.1,562.3,318.2,527.9,400.7,551.6,382.8,520.2,316.0,462.1,362.5,456.0,349.2,560.6,272.6,462.9,420.0,435.7,369.2,663.3,366.6,647.0,362.7,615.8,360.0,610.0,359,175,356,359,1
Image may contain: 1 person,True,1080,1080,https://scontent-syd2-1.cdninstagram.com/vp/f7bce17fab9a943ee148110baa381cd3/5CEE1996/t51.2885-15/e35/12530852_962849603750851_610483184_n.jpg?_nc_ht=scontent-syd2-1.cdninstagram.com,577,14,826,380,1908048550,False,18,pilkaarz97,BCYcYwkt3-g,1456774131,0.0,0.0,0.0,30.0,medium,0.44,0.001,0.001,0.0,0.0,0.014,0.983,0.0,0.002,overExposure,0.99,0.1,0.1,0.1,male,NoGlasses,0.01,1.0,0.04,0.83,0.64,0.36,0.02,False,0.0,-3.3,-34.0,False,False,low,0.11,False,False,False,0.014,467.2,149.3,469.6,148.1,465.0,147.8,467.4,146.5,480.5,147.9,477.9,146.8,482.9,146.2,480.3,145.3,471.2,144.6,462.7,142.4,474.2,143.0,486.1,141.8,470.6,171.6,482.5,170.6,468.4,160.7,470.1,156.8,478.6,159.9,476.5,155.8,470.8,148.2,475.1,148.0,472.5,160.5,467.7,147.9,480.5,146.5,474.9,176.1,474.6,172.9,474.5,170.7,474.4,168.7,42,454,138,42,1
Image may contain: 1 person,True,549,640,https://scontent-syd2-1.cdninstagram.com/vp/9d04727c9cd6d9837b68ed664dea9d20/5D061987/t51.2885-15/e35/25015325_540011216345635_1304733557544976384_n.jpg?_nc_ht=scontent-syd2-1.cdninstagram.com,396,17,1,857,2298983912,False,259,the_hottest_mess,BdRTphLAP7d,1514516727,0.0,0.99,0.0,33.0,low,0.05,0.003,0.022,0.0,0.0,0.003,0.968,0.003,0.0,goodExposure,0.52,0.0,0.0,0.0,female,NoGlasses,0.0,,,,,,,True,0.0,20.8,22.9,True,True,low,0.07,False,True,False,0.003,286.6,130.2,299.6,132.8,278.3,122.9,290.6,121.5,339.7,154.7,332.2,147.8,350.2,155.3,343.2,145.0,315.6,125.9,268.2,102.5,336.2,135.4,368.7,143.9,268.9,190.5,315.0,211.1,289.5,172.0,299.8,161.2,325.1,183.1,323.9,170.5,313.0,140.5,328.0,146.6,313.2,180.3,288.5,125.3,339.9,147.7,291.9,217.5,295.6,208.9,296.7,203.8,298.4,199.1,138,237,101,138,1
"Image may contain: 1 person, hat, tree, outdoor and closeup",True,1350,1080,https://scontent-syd2-1.cdninstagram.com/vp/5c80c7ce621502b2d0ff24f731c78cee/5D0AC615/t51.2885-15/e35/28754557_1837254136567408_2290856111676325888_n.jpg?_nc_ht=scontent-syd2-1.cdninstagram.com,672,19,1,530,184518387,False,273,eldopleasesaythebaby,Bf8akWQHGma,1520258163,0.0,0.96,0.0,20.0,low,0.06,0.0,0.0,0.0,0.0,1.0,0.0,0.0,0.0,goodExposure,0.55,0.1,0.1,0.1,male,NoGlasses,0.0,,,,,,,True,0.0,-8.7,4.2,False,False,low,0.18,False,True,False,1.0,399.4,688.7,427.7,680.0,368.7,687.8,396.1,673.1,591.3,657.9,560.9,658.9,620.7,647.7,588.5,641.3,444.6,626.4,305.4,653.1,532.4,614.1,660.9,605.4,404.8,870.5,633.7,834.1,440.1,790.7,464.7,754.4,591.2,772.3,557.9,738.9,468.1,678.8,526.6,670.1,527.6,786.7,398.5,681.8,596.3,651.5,533.5,929.7,529.6,903.1,524.7,862.3,522.3,844.3,447,288,537,447,1
Image may contain: 1 person,True,640,640,https://scontent-syd2-1.cdninstagram.com/vp/7562ea9dd59c0980074d848d36112c43/5D11B087/t51.2885-15/e35/13258978_1083630215027202_1097268563_n.jpg?_nc_ht=scontent-syd2-1.cdninstagram.com,464,15,826,379,1908048550,False,18,pilkaarz97,BFhaV8bt378,1463517500,0.0,0.0,0.0,30.0,low,0.2,0.001,0.0,0.0,0.0,0.007,0.986,0.006,0.0,goodExposure,0.54,0.1,0.1,0.1,male,NoGlasses,0.01,0.99,0.06,0.44,0.71,0.61,0.03,False,0.0,14.1,16.5,False,False,low,0.0,False,False,True,0.007,291.0,119.7,293.3,119.7,289.2,118.3,291.2,118.0,304.8,123.5,302.8,122.5,306.9,123.5,304.9,122.0,298.1,117.2,285.9,114.4,302.5,118.7,312.1,122.6,287.0,140.0,299.2,143.1,290.6,129.9,293.4,127.4,302.2,132.8,301.3,129.4,296.6,121.1,301.0,122.4,297.8,131.5,291.4,118.9,304.8,122.9,293.3,145.8,294.0,143.2,294.1,140.7,294.4,138.9,40,276,111,40,1
Image may contain: 1 person,False,810,1080,https://scontent-syd2-1.cdninstagram.com/vp/17ea6eba8dc097cf1e69f62fc14a7ba5/5CEDA3A6/t51.2885-15/e35/13102460_788908474573303_514727013_n.jpg?_nc_ht=scontent-syd2-1.cdninstagram.com,68,1,1,177,220123859,False,886,nensyshenovna,BFScjmRvFJo,1463015344,0.0,0.0,0.0,26.0,low,0.0,0.0,0.0,0.0,0.0,1.0,0.0,0.0,0.0,goodExposure,0.52,0.0,0.0,0.0,female,NoGlasses,0.07,0.91,0.24,0.9,0.26,0.35,0.15,False,0.0,-0.2,14.6,True,True,medium,0.57,False,False,False,1.0,354.6,449.2,375.5,444.9,333.5,442.9,355.4,434.0,474.0,450.9,454.6,448.4,490.4,444.4,472.6,435.6,398.4,417.7,300.8,415.0,450.1,423.2,518.6,416.8,357.0,556.9,465.1,555.0,384.0,520.2,396.0,501.9,459.5,519.6,450.7,501.7,401.3,449.5,439.7,451.3,428.3,525.7,350.2,442.0,464.9,443.8,414.1,587.4,416.1,569.3,419.7,570.0,422.1,560.9,253,287,376,253,1
"Image may contain: 1 person, closeup",True,428,640,https://scontent-syd2-1.cdninstagram.com/vp/cb937fadb3ff689ca568e51cc40b37aa/5D11CC86/t51.2885-15/e35/37220552_478007209308476_1949217705529704448_n.jpg?_nc_ht=scontent-syd2-1.cdninstagram.com,1126,37,1,608,464456598,False,65,angi_elle,BggC0mglMrj,1521453673,0.0,0.0,0.0,22.0,high,0.78,0.0,0.0,0.0,0.0,0.0,0.782,0.217,0.001,goodExposure,0.59,0.0,0.0,0.0,female,NoGlasses,0.22,0.7,0.39,0.19,0.26,0.86,0.57,False,0.0,3.7,-9.9,True,True,low,0.0,False,False,False,0.0,276.3,94.5,289.2,90.1,265.5,87.2,278.6,80.2,345.6,97.4,332.5,92.8,359.1,89.5,344.5,82.0,292.1,70.3,250.1,62.3,318.9,70.5,374.3,66.8,274.6,176.4,335.3,177.1,279.1,133.4,288.6,118.2,326.4,136.5,320.7,119.8,298.6,91.5,318.9,92.9,299.8,134.1,279.7,87.0,349.7,88.8,302.3,196.9,303.3,183.2,302.1,172.1,301.6,162.1,176,220,43,176,1
"Image may contain: 2 people, people smiling, child, baby, closeup and indoor",True,810,1080,https://scontent-syd2-1.cdninstagram.com/vp/8de52b632a92891475d340920b87ffe0/5D27AB9D/t51.2885-15/e35/28428433_1242171212579642_2096769460147847168_n.jpg?_nc_ht=scontent-syd2-1.cdninstagram.com,173,2,786,949,1702950354,False,125,yanchik_0711,BgLHGaHATvX,1520751273,0.0,0.0,0.0,29.0,medium,0.36,0.0,0.001,0.0,0.0,0.991,0.008,0.0,0.0,goodExposure,0.5,0.0,0.0,0.0,female,NoGlasses,0.43,0.65,0.63,0.67,0.65,0.38,0.12,False,0.0,35.2,-25.5,True,True,medium,0.45,False,False,False,0.991,771.6,105.4,796.8,112.7,759.9,82.6,790.3,81.8,887.5,174.3,869.5,153.8,914.8,177.2,902.2,149.5,815.5,65.5,761.3,31.9,885.8,100.0,972.2,159.4,719.4,224.0,824.5,278.9,742.8,176.1,768.8,158.0,817.5,228.5,818.2,190.6,808.2,120.3,840.3,138.5,773.0,191.2,786.5,95.2,897.2,161.4,748.9,269.7,756.4,251.6,754.5,253.2,762.2,238.7,300,651,37,300,2
"Image may contain: 3 people, outdoor",False,1080,1080,https://scontent-syd2-1.cdninstagram.com/vp/0e63092ab0a51e592ea0d73dffcad504/5D0C3596/t51.2885-15/e35/28432808_581819678845228_5752797913453428736_n.jpg?_nc_ht=scontent-syd2-1.cdninstagram.com,77,5,935,1,237614247,False,150,martingmiro,BgMlRoHhIHu,1520800648,0.0,0.99,0.0,23.0,low,0.21,0.0,0.0,0.0,0.0,1.0,0.0,0.0,0.0,goodExposure,0.58,0.1,0.1,0.1,male,NoGlasses,0.0,,,,,,,True,0.0,11.0,4.2,True,True,low,0.14,False,True,False,1.0,36.2,263.7,53.2,264.2,19.9,256.5,38.5,254.8,133.6,287.5,119.0,282.3,149.0,289.1,134.9,280.1,78.4,242.9,2.2,232.5,122.3,255.2,182.5,275.7,26.6,358.9,118.1,377.4,50.7,313.6,64.4,298.2,114.2,326.2,106.8,307.5,74.4,272.1,105.8,278.9,86.2,314.0,37.2,259.9,132.1,283.9,69.7,390.4,72.5,378.7,77.1,359.2,78.9,350.8,215,0,209,189,2
"Image may contain: 2 people, outdoor and closeup",False,640,640,https://scontent-syd2-1.cdninstagram.com/vp/61cd88a313d4b1129bf3d46a68ea7bf4/5D2739A8/t51.2885-15/e35/28763702_214583999122469_5062019803338768384_n.jpg?_nc_ht=scontent-syd2-1.cdninstagram.com,68,4,935,1,237614247,False,150,martingmiro,BgRsN-mhVhL,1520972060,0.0,1.0,0.0,34.0,low,0.0,0.0,0.01,0.0,0.0,0.565,0.423,0.001,0.0,underExposure,0.02,0.6,0.6,0.6,male,NoGlasses,0.0,,,,,,,True,0.0,8.6,0.7,False,False,low,0.26,False,True,False,0.565,122.1,158.2,133.1,157.9,112.1,153.8,122.9,151.9,190.0,170.5,180.1,164.3,202.1,168.7,192.0,161.6,142.4,140.8,97.0,136.1,181.1,143.1,224.4,152.1,116.9,223.5,177.6,237.6,135.6,195.4,142.4,185.9,173.8,201.8,168.4,189.5,149.3,162.6,167.7,165.0,154.2,198.7,121.7,154.7,192.3,165.5,142.2,252.1,143.8,242.8,147.7,229.6,148.4,224.1,155,75,117,155,2
"Image may contain: 1 person, selfie and closeup",True,387,640,https://scontent-syd2-1.cdninstagram.com/vp/965c048da51f8053615eb98e0829fbe3/5CED0A96/t51.2885-15/e35/37181070_2145517345737712_8034126387507888128_n.jpg?_nc_ht=scontent-syd2-1.cdninstagram.com,774,30,1,607,464456598,False,65,angi_elle,BgyC4nRnhyh,1522057685,0.0,0.0,0.0,22.0,low,0.0,0.0,0.0,0.0,0.0,0.026,0.959,0.014,0.0,goodExposure,0.59,0.0,0.0,0.0,female,NoGlasses,0.12,0.25,0.28,0.53,0.19,0.81,0.87,False,0.0,26.5,-3.0,True,True,low,0.0,False,False,False,0.026,300.1,86.7,310.7,88.4,292.4,79.4,304.3,80.1,368.6,120.1,359.1,111.2,380.9,121.8,372.9,111.8,326.6,72.2,286.6,47.7,358.7,86.0,405.4,105.7,270.5,173.5,323.5,198.5,294.6,135.2,306.4,122.1,337.4,153.5,338.6,135.5,324.3,97.5,346.4,107.6,318.0,137.8,301.2,82.0,371.1,115.1,289.2,200.2,294.9,188.8,297.8,182.2,302.4,172.9,187,224,46,187,1
"Image may contain: 1 person, outdoor",True,1349,1080,https://scontent-syd2-1.cdninstagram.com/vp/54480d583ba7d9fc4399d63fd34f5c52/5CED04FC/t51.2885-15/e35/29414901_1951168475199022_7100393526625566720_n.jpg?_nc_ht=scontent-syd2-1.cdninstagram.com,666,22,1,531,184518387,False,273,eldopleasesaythebaby,Bg_Ftk5HHqj,1522495375,0.0,0.0,0.0,3.0,medium,0.35,0.001,0.001,0.0,0.0,0.005,0.919,0.074,0.0,goodExposure,0.6,0.0,0.0,0.0,male,NoGlasses,0.03,0.84,0.59,0.71,0.54,0.34,0.08,False,0.0,2.3,1.2,False,False,low,0.18,False,False,False,0.005,669.1,297.0,685.6,291.8,654.9,289.6,670.0,279.0,752.3,302.2,735.8,295.4,768.2,296.1,752.7,282.9,700.7,261.7,634.5,253.6,734.1,267.0,793.8,265.5,667.3,422.9,750.8,432.1,680.3,362.1,691.4,332.9,742.4,359.9,729.7,332.9,698.9,292.7,723.6,294.7,715.0,345.2,675.3,289.8,755.1,293.3,708.5,456.0,710.0,432.4,706.9,421.7,707.9,407.5,250,588,229,250,1
Image may contain: 1 person,True,640,640,https://scontent-syd2-1.cdninstagram.com/vp/9edfaf95750a78ff7af90655d2c9dfa2/5D07DB6D/t51.2885-15/e35/13534057_592491297579179_1885589340_n.jpg?_nc_ht=scontent-syd2-1.cdninstagram.com,539,11,826,380,1908048550,False,18,pilkaarz97,BHaVBkKBvM4,1467574798,0.0,0.0,0.0,28.0,low,0.0,0.0,0.0,0.0,0.0,0.0,0.992,0.008,0.0,goodExposure,0.34,0.1,0.1,0.1,male,NoGlasses,0.01,1.0,0.0,0.58,0.53,0.64,0.01,False,0.0,12.4,-13.2,False,False,high,1.0,False,False,False,0.0,93.3,66.6,96.2,65.6,91.0,64.1,94.1,62.7,108.9,69.6,105.5,67.5,112.2,68.3,109.5,65.6,98.3,60.9,87.3,59.1,104.5,62.3,115.8,66.2,90.5,85.8,104.7,89.2,92.4,76.8,94.3,73.2,102.8,79.5,102.3,75.5,97.3,66.8,102.8,68.0,96.4,78.1,94.8,64.5,110.3,67.7,95.4,93.5,95.9,90.6,96.7,87.2,96.9,84.9,42,78,55,42,1
Image may contain: 1 person,True,1350,1080,https://scontent-syd2-1.cdninstagram.com/vp/9d07235e64b2eae9e119a99b6904c212/5D1D076B/t51.2885-15/e35/29716536_875423232645427_7620795889040228352_n.jpg?_nc_ht=scontent-syd2-1.cdninstagram.com,589,14,1,529,184518387,False,273,eldopleasesaythebaby,BhRudiBnNPd,1523120720,0.0,0.0,0.0,29.0,low,0.22,0.0,0.001,0.0,0.0,0.001,0.992,0.006,0.0,goodExposure,0.46,0.4,0.4,0.4,male,NoGlasses,0.06,1.0,0.02,0.78,0.6,0.42,0.01,False,0.0,4.1,-26.6,False,False,low,0.0,False,False,False,0.001,656.7,668.3,663.9,666.5,649.2,666.3,657.1,663.7,698.7,669.4,691.1,667.3,705.6,668.1,698.4,665.4,665.8,653.3,644.4,654.0,683.8,653.9,719.1,659.4,659.4,719.5,694.6,721.7,657.8,694.5,663.2,685.8,689.3,696.3,684.2,687.5,667.5,666.1,683.6,667.3,669.0,692.2,655.3,665.5,697.1,667.4,670.6,728.6,670.8,721.1,671.9,717.2,672.3,710.5,106,622,639,106,1
"Image may contain: 1 person, sunglasses, beard and closeup",False,1349,1080,https://scontent-syd2-1.cdninstagram.com/vp/b54a0378f3607378af81b3c29440ee25/5D2141F6/t51.2885-15/e35/30944482_332361193957023_9216331013498601472_n.jpg?_nc_ht=scontent-syd2-1.cdninstagram.com,77,6,935,1,237614247,False,150,martingmiro,BiH8GYkDkbT,1524939809,0.99,0.97,0.0,32.0,low,0.1,0.0,0.006,0.0,0.0,0.104,0.89,0.0,0.0,goodExposure,0.47,0.1,0.1,0.1,male,Sunglasses,0.0,,,,,,,True,0.0,5.2,1.2,False,False,low,0.02,False,True,False,0.104,483.9,446.8,523.4,439.8,454.7,427.0,490.4,410.6,709.3,468.3,671.0,454.1,746.2,453.5,710.5,430.0,561.5,386.6,422.7,377.2,657.8,391.7,782.2,394.9,477.4,633.3,667.5,644.4,525.9,547.6,554.3,513.0,655.6,555.2,636.3,519.8,574.1,447.9,629.0,452.8,594.0,545.8,491.7,426.2,702.7,446.8,577.0,686.1,577.4,659.5,581.2,635.3,582.5,616.5,454,360,307,454,1
Image may contain: 1 person,True,1080,1080,https://scontent-syd2-1.cdninstagram.com/vp/77233c70f1c9ce47f298b77f8248727a/5CF00462/t51.2885-15/e35/14156135_1068870773190048_74771847_n.jpg?_nc_ht=scontent-syd2-1.cdninstagram.com,45,0,906,541,404728967,False,485,adypratama14,BJqDI4TDx6E,1472397259,1.0,0.0,0.0,29.0,medium,0.66,0.0,0.0,0.0,0.0,0.0,0.989,0.011,0.0,goodExposure,0.73,0.4,0.4,0.1,male,ReadingGlasses,0.21,1.0,0.03,0.93,0.41,0.27,0.02,False,0.0,12.4,8.2,False,False,low,0.09,False,False,False,0.0,474.1,115.9,482.4,116.1,467.0,112.6,475.2,113.0,518.6,128.8,512.9,124.6,525.1,129.2,519.9,125.5,495.2,106.3,462.0,98.6,509.1,111.1,537.0,117.6,466.5,167.8,506.7,178.3,476.9,145.3,485.2,138.3,507.7,152.6,504.3,143.1,491.6,120.0,503.6,123.2,494.3,149.0,474.9,114.2,519.3,126.9,486.8,182.8,488.3,175.2,488.8,173.2,490.0,166.9,110,437,91,110,1
"Image may contain: 1 person, eyeglasses, stripes and closeup",True,1080,1080,https://scontent-syd2-1.cdninstagram.com/vp/b54a13ddd039664d7269f37f9d58a5ce/5D23397F/t51.2885-15/e35/34173498_889121944621197_6229380996584701952_n.jpg?_nc_ht=scontent-syd2-1.cdninstagram.com,718,17,575,242,1032528843,False,67,weeeronikaaa,BjznGO1DlAR,1528552677,1.0,0.0,0.0,26.0,low,0.06,0.0,0.001,0.0,0.0,0.977,0.022,0.0,0.0,goodExposure,0.52,0.0,0.0,0.0,female,ReadingGlasses,0.14,0.32,0.72,0.89,0.24,0.29,0.42,False,0.0,-8.6,-19.5,False,True,low,0.0,False,False,False,0.977,378.1,369.0,403.4,355.8,350.2,364.4,372.9,345.6,556.9,337.1,525.8,334.7,585.2,322.2,550.9,313.4,405.7,316.5,297.7,337.2,487.0,298.4,614.8,286.8,421.9,538.5,581.7,515.9,413.6,459.4,426.1,417.1,523.4,446.0,497.4,409.8,429.2,354.0,474.4,346.0,448.4,456.5,377.5,353.5,559.8,322.6,490.6,562.4,487.2,542.0,483.3,534.8,480.7,521.7,412,271,227,412,1
Image may contain: 1 person,True,1349,1080,https://scontent-syd2-1.cdninstagram.com/vp/2b7e8b68ca010504c573c1e68c0b2285/5D27C742/t51.2885-15/e35/34189094_1828265854135019_2750583634309152768_n.jpg?_nc_ht=scontent-syd2-1.cdninstagram.com,74,4,659,0,2302620427,False,435,npchi2811,BkG_CLSlNQj,1529202761,0.0,0.0,0.0,22.0,medium,0.31,0.0,0.002,0.0,0.0,0.027,0.719,0.252,0.0,goodExposure,0.66,0.0,0.0,0.0,female,NoGlasses,0.09,0.94,0.11,0.96,0.22,0.26,0.17,False,0.0,-18.5,-14.5,True,True,low,0.1,False,False,False,0.027,629.1,573.9,637.3,568.1,618.8,573.8,627.5,569.0,681.4,555.5,671.8,555.1,688.5,549.3,679.7,550.5,635.5,549.2,603.9,557.5,659.8,540.9,696.4,522.3,645.0,622.7,697.9,606.2,646.0,600.9,648.4,588.1,683.1,590.5,671.1,580.3,647.9,565.1,662.5,559.9,659.7,595.5,626.4,571.7,677.5,553.2,674.1,628.8,671.5,620.7,672.2,621.3,670.4,615.3,124,599,527,124,1
"Image may contain: 2 people, beard and outdoor",True,1350,1080,https://scontent-syd2-1.cdninstagram.com/vp/c363137094f99e05a492f9cfb054dc25/5D04B36F/t51.2885-15/e35/35414982_578636719173412_8683660674003369984_n.jpg?_nc_ht=scontent-syd2-1.cdninstagram.com,100,6,552,7,1540361905,False,498,emanuelebruno17,BkItSWlHhoq,1529260565,0.0,0.0,0.0,40.0,low,0.17,0.006,0.141,0.0,0.0,0.0,0.796,0.056,0.0,goodExposure,0.53,0.9,0.9,0.9,male,NoGlasses,0.31,0.98,0.09,0.56,0.99,0.35,0.0,False,0.0,6.4,-1.0,True,False,low,0.0,False,False,False,0.0,446.9,776.7,476.9,772.7,419.6,764.0,449.4,754.9,631.6,801.0,603.3,788.7,661.7,795.7,630.1,778.0,503.2,747.7,372.1,731.8,589.0,757.8,706.8,774.1,430.0,980.7,604.3,1004.5,464.7,903.9,483.5,870.9,588.3,914.9,571.7,882.8,513.2,785.0,572.5,791.8,529.5,919.3,447.4,761.9,633.5,788.3,514.0,1033.2,518.2,1006.6,522.4,999.7,523.2,983.7,454,302,659,454,1
"Image may contain: 1 person, sky, outdoor, closeup and nature",True,600,480,https://scontent-syd2-1.cdninstagram.com/vp/3d972a6e0ebd3ed16b92df2ca0eb913d/5CEC1E46/t51.2885-15/e35/35421888_451228658678641_4987363724021989376_n.jpg?_nc_ht=scontent-syd2-1.cdninstagram.com,72,0,553,516,1503364217,False,515,gutocruz89,BkQSPhHALtp,1529514821,0.0,0.0,0.0,32.0,low,0.0,0.0,0.0,0.0,0.0,1.0,0.0,0.0,0.0,goodExposure,0.55,0.6,0.6,0.6,male,NoGlasses,0.13,1.0,0.01,0.15,0.68,0.85,0.02,False,0.0,2.9,-0.6,False,False,low,0.0,False,False,False,1.0,121.3,277.7,133.1,276.1,108.0,276.1,121.5,269.8,200.6,279.5,187.9,277.5,212.9,279.3,202.0,272.4,140.3,260.4,86.6,267.0,177.4,261.6,232.7,268.8,117.0,352.5,191.4,355.4,125.6,314.0,137.9,298.9,184.4,317.2,174.3,300.7,143.4,278.5,170.3,279.8,155.8,312.6,122.9,273.5,201.4,276.7,154.1,368.8,154.1,359.4,154.5,346.7,155.1,340.2,175,70,225,175,1
Image may contain: 1 person,True,1080,1080,https://scontent-syd2-1.cdninstagram.com/vp/12911c6f31354d521beea1d30fc2f4bf/5D1F5323/t51.2885-15/e35/14478417_1455116011171160_5628441615048638464_n.jpg?_nc_ht=scontent-syd2-1.cdninstagram.com,25,0,513,2,2951545691,False,842,morelcia_morelli,BKwVUJ8jkTS,1474755599,0.0,0.0,0.0,30.0,medium,0.49,0.0,0.001,0.0,0.0,0.011,0.987,0.001,0.0,goodExposure,0.32,0.0,0.0,0.0,female,NoGlasses,0.03,0.0,1.0,0.64,0.46,0.1,0.28,False,0.0,-10.6,-4.0,True,True,low,0.07,False,False,False,0.011,498.8,200.0,509.2,195.5,488.3,197.8,498.1,193.6,563.4,186.3,551.5,187.8,572.2,180.5,561.2,180.8,512.0,180.6,471.3,185.6,539.1,174.9,584.9,160.6,514.8,263.6,571.4,253.6,517.2,235.2,519.4,221.4,555.0,229.0,544.8,215.2,520.1,196.5,538.7,192.6,534.7,229.3,498.7,196.6,560.2,184.5,543.3,269.1,541.8,260.4,541.5,262.7,540.1,256.0,146,462,151,146,1
"Image may contain: 1 person, ocean, sky, child, outdoor and water",True,1080,1080,https://scontent-syd2-1.cdninstagram.com/vp/230d9aec61f55158f5013ab73895340e/5D07B94E/t51.2885-15/e35/37774514_284889782092261_3920809587921387520_n.jpg?_nc_ht=scontent-syd2-1.cdninstagram.com,130,3,875,415,4568441299,False,398,_emanuela.def_,Bl1Ik-OnhJB,1532898752,0.0,0.0,0.0,22.0,low,0.1,0.0,0.001,0.0,0.0,0.019,0.979,0.001,0.0,goodExposure,0.44,0.0,0.0,0.0,female,NoGlasses,0.02,0.68,0.1,1.0,0.03,0.06,0.63,False,0.0,-14.0,18.8,True,True,low,0.0,False,False,False,0.019,621.9,437.1,625.5,435.3,618.4,437.0,621.4,434.5,643.2,433.4,639.5,433.0,645.7,431.9,642.2,430.9,629.5,430.1,613.1,433.8,638.0,428.7,650.0,426.8,628.2,457.1,646.7,453.5,629.9,446.8,630.7,441.8,643.5,443.9,639.9,439.6,630.3,434.5,636.5,433.3,638.1,442.5,621.2,436.0,642.3,432.1,640.8,459.5,639.9,456.8,638.7,453.5,638.1,451.2,47,611,420,47,1
"Image may contain: 1 person, closeup",False,1080,1080,https://scontent-syd2-1.cdninstagram.com/vp/d517d745bef295949facce28f6f435cd/5D08D4DC/t51.2885-15/e35/36911089_280783722470428_7352118707985842176_n.jpg?_nc_ht=scontent-syd2-1.cdninstagram.com,132,6,2,029,3999015867,False,269,jaqqiesr,BllZVCKA6mG,1532370663,0.0,0.0,0.0,21.0,medium,0.45,0.0,0.001,0.0,0.0,0.973,0.026,0.0,0.0,goodExposure,0.71,0.0,0.0,0.0,female,NoGlasses,0.33,0.37,0.92,0.93,0.18,0.13,0.23,False,0.0,33.7,-27.1,False,True,medium,0.5,False,False,False,0.973,377.2,399.0,395.7,402.4,366.2,384.4,386.6,386.0,474.8,451.5,461.5,437.7,495.5,454.4,482.8,436.6,412.2,366.9,363.9,344.8,466.2,392.9,544.7,443.9,331.8,498.5,418.6,547.8,357.9,458.8,380.0,442.9,414.5,495.9,416.7,468.7,407.8,411.4,435.1,425.3,376.1,467.6,383.6,391.8,482.0,445.0,355.7,537.5,362.2,525.5,361.3,523.3,365.6,513.4,255,272,340,255,1
"Image may contain: 1 person, standing and outdoor",True,1080,1080,https://scontent-syd2-1.cdninstagram.com/vp/87df6d93cad8fd160fae279709418e4c/5D2767D0/t51.2885-15/e35/36877749_997534080424530_8631603634561351680_n.jpg?_nc_ht=scontent-syd2-1.cdninstagram.com,105,5,876,415,4568441299,False,398,_emanuela.def_,BlOyIcznm6s,1531611915,0.0,0.0,0.0,30.0,low,0.0,0.0,0.002,0.0,0.0,0.622,0.376,0.0,0.0,goodExposure,0.62,0.0,0.0,0.0,female,NoGlasses,0.04,0.98,0.08,0.81,0.44,0.46,0.09,False,0.0,19.3,2.0,True,True,low,0.0,False,False,False,0.622,802.7,338.1,808.6,338.0,798.6,334.6,804.4,333.6,836.2,348.6,831.4,345.5,841.4,347.7,837.3,343.9,814.3,331.2,793.4,325.4,830.7,337.0,850.5,344.0,791.5,369.5,823.9,379.4,802.4,357.9,808.1,352.5,824.3,363.2,823.0,355.7,814.5,341.1,824.8,343.8,815.0,357.7,804.9,336.2,837.3,346.1,806.7,379.5,808.0,375.3,808.0,375.0,809.0,372.6,78,776,318,78,1
"Image may contain: 1 person, sky and outdoor",True,810,1080,https://scontent-syd2-1.cdninstagram.com/vp/32be7d568ff1dc176a02f12790f56847/5D024274/t51.2885-15/e35/36938419_439628149871523_1626030049389969408_n.jpg?_nc_ht=scontent-syd2-1.cdninstagram.com,52,0,553,516,1503364217,False,515,gutocruz89,BlVyaQyBkOB,1531846942,1.0,0.0,0.0,30.0,low,0.0,0.0,0.0,0.0,0.0,1.0,0.0,0.0,0.0,goodExposure,0.53,0.1,0.6,0.1,male,Sunglasses,0.16,0.94,0.29,0.74,0.34,0.46,0.12,False,0.0,5.0,-4.2,True,True,low,0.0,False,False,False,1.0,200.8,447.2,215.8,441.6,187.8,441.5,199.8,431.9,299.4,455.7,283.7,447.4,316.5,452.9,301.7,441.0,234.8,414.8,152.8,417.5,275.5,418.1,346.2,439.2,198.8,542.1,289.6,546.1,208.6,493.3,219.5,472.6,274.9,500.1,266.5,478.0,231.1,443.7,263.8,446.6,238.2,491.3,199.0,438.0,295.7,448.1,239.6,567.2,241.1,555.2,242.5,543.3,243.2,532.8,219,135,381,219,1
Image may contain: 1 person,True,1080,1080,https://scontent-syd2-1.cdninstagram.com/vp/509b19affac9c2fb542d5ae0bc3b61a8/5D19E884/t51.2885-15/e35/37340412_2132285196983691_7785041580242501632_n.jpg?_nc_ht=scontent-syd2-1.cdninstagram.com,794,44,1,126,4800436891,False,961,shadows_18,BlYwoAtHmUT,1531946670,0.0,0.0,0.0,29.0,low,0.08,0.001,0.003,0.001,0.001,0.016,0.952,0.017,0.01,goodExposure,0.64,0.0,0.0,0.0,female,NoGlasses,0.09,0.99,0.08,0.88,0.31,0.37,0.06,False,0.0,5.4,-6.0,True,False,low,0.0,False,False,False,0.016,456.7,394.3,477.7,391.6,439.2,385.8,459.0,379.7,574.5,404.3,550.8,397.3,595.8,396.8,574.9,387.8,483.0,356.8,417.6,359.0,541.2,356.3,615.4,377.9,448.2,493.3,555.2,503.8,464.3,446.4,483.3,426.0,546.9,453.8,530.5,427.1,495.2,391.5,526.1,391.9,503.2,438.6,461.2,386.6,574.3,395.4,503.3,513.4,504.3,499.7,503.9,494.2,505.1,484.8,245,386,318,245,1
"Image may contain: 1 person, ocean, sky, text, outdoor and water",True,712,1080,https://scontent-syd2-1.cdninstagram.com/vp/053d55ec76459ec70197dad4dd06eb5d/5D1F9B0F/t51.2885-15/e35/37146663_1858801990846214_8230591226852671488_n.jpg?_nc_ht=scontent-syd2-1.cdninstagram.com,69,0,801,676,3898067184,False,489,quetzalcoatl_mty,BlZLF8AnTgB,1531960546,0.0,0.0,0.0,51.0,medium,0.4,0.001,0.026,0.001,0.0,0.106,0.863,0.002,0.0,underExposure,0.15,0.6,0.6,0.1,male,NoGlasses,0.17,0.98,0.27,0.42,0.88,0.46,0.01,False,0.0,1.0,6.7,False,False,low,0.0,False,False,False,0.106,224.8,192.6,237.9,190.3,213.9,188.3,225.3,183.7,294.7,196.9,283.1,192.9,307.0,195.1,295.2,187.8,253.3,177.1,196.3,175.9,269.9,179.9,320.2,177.9,222.5,267.7,293.8,274.5,235.4,232.0,247.9,217.4,287.2,235.3,279.1,217.1,253.1,192.3,272.5,192.7,265.3,231.9,221.6,188.2,291.7,191.9,260.0,289.9,260.8,278.4,261.3,269.5,261.0,261.7,171,173,143,171,1
"Image may contain: 1 person, closeup",True,1080,1080,https://scontent-syd2-1.cdninstagram.com/vp/90341ec90add1a5d519a5c6a2a0be2d7/5D18C4E8/t51.2885-15/e35/38443961_1038930756265979_5239209868841189376_n.jpg?_nc_ht=scontent-syd2-1.cdninstagram.com,108,2,876,415,4568441299,False,398,_emanuela.def_,BmCABhAnsb8,1533330475,0.0,0.0,0.0,23.0,low,0.22,0.0,0.0,0.0,0.0,0.001,0.998,0.0,0.0,goodExposure,0.45,0.0,0.0,0.0,female,NoGlasses,0.41,0.93,0.16,0.98,0.34,0.12,0.08,False,0.0,-4.9,-3.7,True,True,low,0.13,False,False,False,0.001,411.3,421.3,430.8,409.7,388.8,413.8,406.7,400.9,531.1,412.2,509.2,405.2,553.0,403.8,530.0,395.0,428.0,375.0,356.9,383.9,493.7,369.8,577.0,379.7,437.5,533.3,530.3,523.0,439.1,474.2,443.7,448.6,507.6,465.0,494.7,442.2,451.4,411.0,481.6,408.6,467.8,458.3,414.0,407.9,531.0,401.1,484.3,546.3,481.4,531.5,480.9,514.1,480.2,502.1,259,346,332,259,1
"Image may contain: 2 people, outdoor",True,1080,1080,https://scontent-syd2-1.cdninstagram.com/vp/e03add5964867cf1f1fb41e8e1c41108/5D28E803/t51.2885-15/e35/38080921_255164111767385_2020109160112193536_n.jpg?_nc_ht=scontent-syd2-1.cdninstagram.com,912,59,1,126,4800436891,False,961,shadows_18,BmCqW66H7yy,1533352670,0.0,0.0,0.0,10.0,low,0.0,0.0,0.004,0.0,0.0,0.001,0.963,0.03,0.001,goodExposure,0.33,0.0,0.0,0.0,female,NoGlasses,0.09,0.99,0.15,0.22,0.54,0.75,0.05,False,0.0,1.2,-1.8,False,False,low,0.0,False,False,False,0.001,474.0,511.7,488.5,508.2,461.4,506.3,475.1,502.1,567.9,513.1,550.3,509.5,582.7,506.2,566.0,500.1,495.9,483.6,439.4,480.4,539.3,485.4,602.4,473.4,475.0,600.0,556.0,602.3,484.2,559.7,498.4,538.5,549.7,557.7,541.2,541.3,504.8,510.8,532.4,510.2,517.8,556.3,479.0,505.5,570.2,503.7,515.5,629.3,515.8,612.2,514.9,597.3,515.0,584.4,206,416,448,206,1
"L’image contient peut-être : 1 personne, arbre et plein air",True,1080,1080,https://scontent-syd2-1.cdninstagram.com/vp/9bd4148bd353067855f2f5651d682b77/5D0BB07A/t51.2885-15/e35/37550943_1123244481157439_5790868091248312320_n.jpg?_nc_ht=scontent-syd2-1.cdninstagram.com,1540,108,1,126,4800436891,False,961,shadows_18,BmEev1Pn37n,1533413692,0.0,0.0,0.0,17.0,low,0.0,0.0,0.001,0.0,0.0,0.001,0.866,0.13,0.001,underExposure,0.22,0.0,0.0,0.0,female,NoGlasses,0.09,1.0,0.06,0.86,0.28,0.4,0.03,False,0.0,5.3,21.2,True,True,low,0.09,False,False,False,0.001,495.3,491.5,510.6,488.4,480.3,485.1,496.5,478.3,576.2,497.8,563.3,491.5,587.7,493.0,577.1,487.8,529.3,470.6,464.2,460.1,566.7,469.5,605.1,469.7,484.4,589.3,555.8,594.8,506.5,542.0,520.2,524.7,563.4,549.5,558.1,529.6,529.1,491.4,551.1,493.8,542.2,547.0,497.0,484.6,574.3,491.5,524.2,630.2,526.0,612.4,530.5,585.1,532.7,572.3,205,428,437,205,1
"Image may contain: 1 person, standing, sunglasses, outdoor, water and nature",True,1350,1080,https://scontent-syd2-1.cdninstagram.com/vp/8ca0dd94efb7abb24be7faa8ae679aae/5D065534/t51.2885-15/e35/38511407_226914871307080_2294526083921346560_n.jpg?_nc_ht=scontent-syd2-1.cdninstagram.com,159,1,786,949,1702950354,False,125,yanchik_0711,BmojjEhlVJR,1534624168,1.0,0.0,0.0,24.0,low,0.0,0.0,0.0,0.0,0.0,0.0,0.995,0.001,0.003,goodExposure,0.57,0.0,0.0,0.0,female,Sunglasses,0.13,0.21,0.94,0.53,0.32,0.45,0.38,False,0.0,-3.2,-8.6,True,True,low,0.0,False,False,False,0.0,536.7,415.2,549.8,406.2,521.1,409.3,534.3,402.6,639.6,403.1,618.9,400.0,654.9,394.1,634.6,390.7,556.4,379.8,494.7,384.4,604.4,371.6,678.6,374.1,552.6,523.5,629.1,516.3,552.1,463.4,558.7,444.8,619.1,460.3,604.8,441.1,566.4,406.6,597.2,404.1,581.3,454.2,536.7,406.9,638.4,395.1,590.9,530.0,588.3,516.1,587.1,505.3,586.2,494.5,237,469,338,237,1
"Image may contain: 4 people, closeup",True,770,1080,https://scontent-syd2-1.cdninstagram.com/vp/b1bcb28321e61208a828f29a6755df2a/5D255F5C/t51.2885-15/e35/38022162_263358737610653_4856094984991932416_n.jpg?_nc_ht=scontent-syd2-1.cdninstagram.com,129,2,158,1,8373657604,False,18,tmurf89,BmUqVrinxku,1533956640,0.0,0.0,0.0,32.0,high,0.75,0.0,0.0,0.0,0.0,1.0,0.0,0.0,0.0,goodExposure,0.65,0.1,0.1,0.1,male,NoGlasses,0.37,0.75,0.78,0.59,0.3,0.42,0.17,False,0.0,6.5,13.0,False,False,low,0.29,False,False,False,1.0,73.4,453.1,95.0,448.1,55.2,444.3,75.3,438.6,193.3,464.0,175.8,459.0,213.4,462.1,195.8,450.3,113.3,424.9,29.0,414.9,179.8,430.1,243.3,444.4,54.3,556.7,178.8,571.4,84.7,520.7,105.9,498.8,172.9,531.3,166.7,503.0,127.1,455.1,158.4,458.9,138.6,522.5,73.4,446.4,189.9,457.3,125.1,595.8,125.0,578.5,123.3,576.4,123.5,567.2,261,0,377,258,3
"L’image contient peut-être : 1 personne, gros plan",True,1080,1080,https://scontent-syd2-1.cdninstagram.com/vp/66fbd9121033e7126db61046bd319af6/5CEF42AE/t51.2885-15/e35/38449834_889689211227433_8656013608741765120_n.jpg?_nc_ht=scontent-syd2-1.cdninstagram.com,1230,93,1,126,4800436891,False,961,shadows_18,BmWQp3Bnzmj,1534010282,0.0,0.0,0.0,9.0,low,0.12,0.0,0.023,0.0,0.001,0.003,0.729,0.002,0.242,goodExposure,0.58,0.0,0.0,0.0,female,NoGlasses,0.18,0.99,0.1,0.25,0.36,0.78,0.07,False,0.0,-6.6,-15.0,True,True,low,0.28,False,False,False,0.003,412.3,442.4,431.7,434.7,393.6,435.8,411.8,425.6,520.2,425.5,498.1,422.5,540.0,413.8,515.7,406.8,430.3,403.6,374.1,398.7,482.5,394.2,560.9,382.1,448.7,546.7,522.5,537.4,434.1,494.0,444.0,469.5,504.0,488.1,488.1,465.5,449.9,432.6,483.0,428.8,462.1,485.3,412.5,433.1,518.7,415.6,480.3,569.2,476.9,551.8,472.7,532.2,470.3,520.0,240,352,361,240,1
"Image may contain: 1 person, outdoor and closeup",True,1350,1080,https://scontent-syd2-1.cdninstagram.com/vp/d5678133ab8a6881aafcd46764a8b3cc/5D0CA490/t51.2885-15/e35/39756314_1831464160302515_7398865127740538880_n.jpg?_nc_ht=scontent-syd2-1.cdninstagram.com,92,2,158,1,8373657604,False,18,tmurf89,BnAU4OQHPf7,1535421783,0.0,0.0,0.0,37.0,low,0.1,0.012,0.684,0.019,0.001,0.145,0.117,0.022,0.0,goodExposure,0.44,0.1,0.1,0.1,male,NoGlasses,0.63,0.11,0.95,0.97,0.44,0.07,0.21,False,0.0,-3.1,6.5,False,False,low,0.0,False,False,False,0.145,379.9,816.3,412.7,810.0,343.7,814.2,375.9,802.0,600.8,815.5,562.4,808.9,635.1,807.9,597.8,795.5,451.2,770.4,289.9,775.4,542.9,771.7,670.7,761.3,378.9,1036.1,617.7,1021.8,421.7,929.9,450.4,882.0,570.0,920.0,541.1,873.8,465.4,812.3,526.7,807.9,511.0,915.5,375.7,808.4,597.8,805.4,509.1,1054.2,506.3,1033.1,511.9,1026.2,511.9,1008.8,505,243,659,505,1
"Image may contain: 1 person, eyeglasses and closeup",True,1080,1080,https://scontent-syd2-1.cdninstagram.com/vp/cabf2ba7dabf8fe080c6964ed3cb5762/5D0C78C6/t51.2885-15/e35/39565515_732726490407860_6560394130382389248_n.jpg?_nc_ht=scontent-syd2-1.cdninstagram.com,9,0,58,61,8421557978,False,32,consolecrossing,BnKIRjmB4Lp,1535750719,1.0,0.0,0.0,26.0,low,0.0,0.0,0.0,0.0,0.0,1.0,0.0,0.0,0.0,goodExposure,0.63,0.0,0.0,0.0,female,ReadingGlasses,0.12,0.16,0.97,0.69,0.31,0.3,0.3,False,0.0,-8.4,-0.3,True,True,low,0.13,False,False,False,1.0,762.3,448.6,785.9,437.8,740.7,442.5,761.9,429.8,899.8,429.3,876.0,424.9,922.2,420.1,897.6,410.5,794.8,413.0,688.6,425.4,860.1,402.8,963.5,382.7,779.5,570.5,915.7,552.9,791.6,521.7,811.8,496.4,894.6,505.2,872.5,486.8,811.5,440.7,859.0,435.0,845.3,524.3,763.5,436.5,897.7,418.0,859.1,605.2,855.1,582.9,854.2,573.0,851.4,561.1,305,687,345,305,1
"Image may contain: 1 person, sitting and food",False,663,750,https://scontent-syd2-1.cdninstagram.com/vp/0321b8fc07a2a4c68ef404086d0e1708/5D2437E5/t51.2885-15/e35/42002858_178866483001697_8204829233599908460_n.jpg?_nc_ht=scontent-syd2-1.cdninstagram.com,85,9,916,87,8642538577,False,117,bohealthyproducts,Boul6yOnrJV,1539121705,0.0,0.0,0.0,31.0,medium,0.34,0.0,0.0,0.0,0.0,1.0,0.0,0.0,0.0,goodExposure,0.53,0.0,0.0,0.0,female,NoGlasses,0.02,0.74,0.65,0.99,0.3,0.04,0.07,False,0.0,3.9,-2.7,True,False,medium,0.39,False,False,False,1.0,227.5,261.9,231.6,261.8,224.1,260.7,228.0,260.3,251.7,263.6,248.0,262.7,255.8,262.9,251.6,261.9,235.2,258.3,220.0,255.9,244.8,258.9,260.3,258.4,226.6,281.2,250.4,282.6,230.3,274.0,233.6,270.5,248.1,275.5,245.1,271.2,235.8,262.9,243.2,263.1,238.7,275.5,227.3,261.1,251.2,263.0,237.9,289.3,238.0,286.2,238.1,283.5,238.1,281.8,49,215,248,49,1
"Image may contain: 1 person, selfie and closeup",True,1256,1080,https://scontent-syd2-1.cdninstagram.com/vp/8236342607a25748ff93539409e0101a/5D0D1379/t51.2885-15/e35/41679794_338198560282781_159558835807336786_n.jpg?_nc_ht=scontent-syd2-1.cdninstagram.com,211,2,652,183,1361108077,False,98,unnnnsta,BoZXLHXFltb,1538409331,0.0,0.0,0.0,23.0,medium,0.75,0.0,0.0,0.0,0.0,0.0,0.999,0.0,0.001,goodExposure,0.58,0.1,0.1,0.1,male,NoGlasses,0.24,0.99,0.19,0.82,0.29,0.34,0.04,False,0.0,-0.8,-10.4,True,False,low,0.0,False,False,False,0.0,330.0,469.0,358.8,459.1,305.1,461.2,331.1,445.2,510.3,459.3,483.0,451.6,540.6,448.1,511.9,436.2,365.8,394.6,266.4,408.0,467.9,390.2,580.8,389.3,356.8,653.5,498.1,651.1,361.3,556.2,371.1,511.9,471.6,556.2,455.8,515.8,394.0,458.8,437.4,458.2,405.3,535.5,332.7,455.4,507.8,444.6,414.7,684.2,414.9,656.2,414.8,635.0,414.4,612.5,409,215,339,409,1
"Image may contain: 1 person, standing",False,1080,1080,https://scontent-syd2-1.cdninstagram.com/vp/852d91b5a418267408b36b38de1b1cd0/5D23ACCE/t51.2885-15/e35/43033854_206096770287342_3974564072397379964_n.jpg?_nc_ht=scontent-syd2-1.cdninstagram.com,360,31,690,1,4397731995,False,24,kk__0127,Bp4AWz_HlRE,1541585039,0.0,0.0,0.0,22.0,high,0.92,0.002,0.008,0.0,0.0,0.0,0.944,0.046,0.0,goodExposure,0.4,0.0,0.0,0.0,female,NoGlasses,0.04,0.99,0.07,0.96,0.26,0.2,0.03,False,0.0,-9.6,13.8,False,False,high,0.74,False,False,False,0.0,889.3,57.3,895.7,54.5,883.6,56.2,889.1,55.0,925.3,49.7,919.6,48.9,930.4,46.9,924.7,47.6,901.7,42.3,874.6,48.5,917.9,38.1,933.8,34.9,894.9,90.2,926.9,84.4,899.7,74.9,902.7,66.9,922.5,69.1,917.4,63.0,904.2,52.9,912.7,50.6,912.7,70.6,889.4,55.9,923.8,48.6,913.5,93.5,912.6,88.9,912.2,87.0,912.7,84.8,78,871,30,78,1
"Image may contain: 1 person, phone and indoor",True,1080,1080,https://scontent-syd2-1.cdninstagram.com/vp/0c5c31e6e464ad9ea238beaaa034a420/5CED0200/t51.2885-15/e35/42445085_2298945237001912_7756971233067625120_n.jpg?_nc_ht=scontent-syd2-1.cdninstagram.com,158,14,495,83,1330679040,False,84,hoonoppang,Bp6uh8BFQk0,1541676357,0.0,0.0,0.0,24.0,low,0.0,0.0,0.0,0.0,0.0,0.0,0.996,0.003,0.001,overExposure,0.76,0.1,0.1,0.1,male,NoGlasses,0.26,1.0,0.02,0.26,0.62,0.76,0.01,False,0.0,9.4,-4.9,False,False,medium,0.4,False,False,False,0.0,469.3,437.2,474.6,435.6,465.3,432.7,470.1,430.6,499.7,441.7,495.2,437.9,504.8,440.3,500.8,435.6,480.3,419.1,460.3,415.9,493.8,420.6,516.2,430.4,464.1,489.0,491.8,492.9,468.3,463.6,473.8,454.9,490.9,467.4,488.4,457.5,479.6,436.1,489.3,438.6,480.2,463.0,467.9,433.2,498.1,437.3,475.0,503.3,475.8,495.5,475.9,489.9,476.5,484.0,98,431,413,98,1
"Image may contain: 1 person, text and closeup",True,1350,1080,https://scontent-syd2-1.cdninstagram.com/vp/a877c2636ea1bbd758868bb6476982a1/5CF04902/t51.2885-15/e35/44241480_174418986828679_693213022378522285_n.jpg?_nc_ht=scontent-syd2-1.cdninstagram.com,25,3,141,138,8771112468,False,13,itstunzy,BpeU-C5Hf20,1540723431,0.0,0.0,0.0,24.0,medium,0.48,0.0,0.001,0.0,0.0,0.237,0.762,0.0,0.0,goodExposure,0.43,0.0,0.0,0.0,female,NoGlasses,0.03,0.99,0.04,0.34,0.75,0.74,0.05,False,0.0,3.5,-11.6,True,True,low,0.14,False,False,False,0.237,415.7,331.6,450.8,323.9,383.7,317.1,419.1,300.2,612.3,337.9,577.7,328.6,650.3,326.8,615.0,308.4,470.3,270.0,347.3,270.0,548.8,272.3,702.0,283.7,419.8,533.5,591.9,535.4,441.7,452.1,465.5,406.3,562.0,459.0,544.0,417.0,483.9,331.3,534.0,331.4,490.0,448.9,421.9,315.4,613.7,323.6,494.5,583.8,496.7,550.5,492.8,547.6,493.9,529.9,450,282,202,450,1
"Image may contain: 1 person, closeup and outdoor",True,1350,1080,https://scontent-syd2-1.cdninstagram.com/vp/5f005ff76dbdf7a65bdbc2b7474a18ac/5D05D18D/t51.2885-15/e35/43095894_297891984382821_6803487407539259930_n.jpg?_nc_ht=scontent-syd2-1.cdninstagram.com,105,5,827,462,1928124611,False,78,llmorochall,BpKLloUAK10,1540047424,0.0,0.0,0.0,22.0,low,0.0,0.0,0.0,0.0,0.0,0.578,0.421,0.0,0.0,goodExposure,0.51,0.0,0.0,0.0,female,NoGlasses,0.08,1.0,0.05,0.57,0.47,0.61,0.03,False,0.0,0.1,-4.6,True,True,medium,0.66,False,False,False,0.578,561.7,791.6,591.8,783.5,539.9,775.6,565.3,763.7,724.5,797.5,695.5,788.4,749.4,779.9,721.3,769.2,600.2,751.1,515.2,739.3,676.4,757.0,778.0,742.1,593.4,920.0,705.2,921.8,598.5,877.3,610.2,851.9,694.0,877.9,682.6,850.3,618.2,791.1,666.5,793.6,644.1,886.0,569.7,776.6,724.0,779.5,644.9,960.3,644.8,941.2,643.1,937.0,643.2,927.4,313,491,697,313,1
"Image may contain: 1 person, standing and closeup",False,1080,1080,https://scontent-syd2-1.cdninstagram.com/vp/ff76103d493017487b7577a8a8f6a836/5D19535F/t51.2885-15/e35/46597959_195207714755293_8325449982382095163_n.jpg?_nc_ht=scontent-syd2-1.cdninstagram.com,126,4,156,56,2215753417,False,10,_sun._.a,Bq4XTQlHsSZ,1543744552,0.0,0.0,0.0,23.0,low,0.0,0.0,0.0,0.0,0.0,0.0,0.995,0.005,0.0,goodExposure,0.72,0.0,0.0,0.0,female,NoGlasses,0.1,0.99,0.07,0.88,0.33,0.38,0.06,False,0.0,-5.0,4.5,True,True,low,0.24,False,False,False,0.0,607.7,331.3,627.8,323.0,589.4,323.9,607.9,313.3,724.3,321.2,703.3,317.6,740.7,310.5,720.7,302.9,640.2,285.8,556.5,297.9,693.5,282.6,768.5,278.9,632.4,449.7,718.6,440.3,641.0,398.4,646.7,370.1,705.3,390.0,693.1,366.1,654.5,322.1,680.4,320.1,673.1,385.5,609.2,321.8,721.6,312.6,678.3,456.8,677.4,443.1,677.5,443.7,676.5,433.4,259,541,250,259,1
"Image may contain: 1 person, closeup",True,855,750,https://scontent-syd2-1.cdninstagram.com/vp/0231f873d4477a26bb97374beb77f40b/5D1AD182/t51.2885-15/e35/46089633_426048431265966_3234972628207754786_n.jpg?_nc_ht=scontent-syd2-1.cdninstagram.com,438,19,1,607,464456598,False,65,angi_elle,Bq765VjhVmL,1543863878,0.0,0.0,0.0,23.0,high,1.0,0.341,0.017,0.003,0.001,0.003,0.623,0.001,0.011,goodExposure,0.68,0.0,0.0,0.0,female,NoGlasses,0.12,0.97,0.09,0.67,0.21,0.66,0.24,False,0.0,38.0,-6.3,True,True,low,0.0,False,False,False,0.003,301.3,288.7,337.3,296.3,287.6,253.8,322.1,260.6,445.8,391.8,425.7,361.7,481.6,388.6,462.7,358.3,363.3,285.4,291.7,202.4,422.7,326.0,538.6,367.5,232.7,448.8,343.5,528.6,281.7,392.7,311.1,368.0,360.2,443.2,364.3,407.7,358.6,317.6,394.9,342.7,313.2,419.1,317.0,273.8,458.4,371.1,260.3,515.0,274.3,494.4,280.4,478.3,291.4,461.0,396,137,207,396,1
Image may contain: 1 person,True,1109,1080,https://scontent-syd2-1.cdninstagram.com/vp/636f142b2282056631e6038dbca040f8/5D20CA47/t51.2885-15/e35/46382027_1195310980628394_8648361214516251385_n.jpg?_nc_ht=scontent-syd2-1.cdninstagram.com,75,5,210,144,396921520,False,173,artbyellinor,Bq7meJwl0Ph,1543853169,0.0,0.0,0.0,34.0,medium,0.32,0.0,0.0,0.0,0.0,0.0,0.999,0.0,0.0,goodExposure,0.58,0.0,0.0,0.0,female,NoGlasses,0.14,0.0,1.0,0.23,0.74,0.26,0.4,False,0.0,7.6,5.2,True,True,low,0.0,False,False,False,0.0,532.1,222.0,540.7,221.5,526.3,217.7,533.8,215.1,578.6,226.9,572.2,223.8,585.8,223.6,578.7,219.8,548.6,210.1,518.0,203.9,569.0,213.0,596.1,212.0,528.0,265.9,568.1,270.4,539.2,246.6,543.7,240.3,564.6,250.4,562.2,243.5,549.6,223.1,561.6,224.4,552.9,250.0,533.4,217.4,578.5,222.2,548.0,280.0,549.0,272.6,548.6,271.0,549.5,265.7,104,500,192,104,1
"L’image contient peut-être : 1 personne, assis",True,1080,1080,https://scontent-syd2-1.cdninstagram.com/vp/3c2a1e0ba1a12fb6eb07d795779f493a/5D1CD0BD/t51.2885-15/e35/44462127_1972916726129877_7674366203829899258_n.jpg?_nc_ht=scontent-syd2-1.cdninstagram.com,568,44,1,126,4800436891,False,961,shadows_18,BqaZZ3sg5e_,1542739022,0.0,0.0,0.0,21.0,low,0.0,0.0,0.007,0.0,0.0,0.0,0.992,0.001,0.0,goodExposure,0.6,0.0,0.0,0.0,female,NoGlasses,0.06,0.97,0.07,0.97,0.36,0.19,0.07,False,0.0,-17.3,-15.3,True,True,low,0.06,False,False,False,0.0,510.6,484.6,517.2,478.3,502.5,484.2,507.9,476.2,557.0,463.9,546.2,464.4,564.9,455.8,554.1,454.6,512.5,458.0,488.0,470.4,533.3,446.4,570.5,432.2,525.6,533.0,565.7,515.3,521.2,503.9,522.9,492.0,550.0,492.7,541.6,485.0,522.9,474.9,535.3,469.5,529.4,496.3,510.8,479.1,557.3,458.3,547.7,544.5,545.4,536.1,540.7,521.5,538.6,514.8,117,479,437,117,1
"Image may contain: 1 person, selfie and closeup",False,1080,1080,https://scontent-syd2-1.cdninstagram.com/vp/3287de2e61789ddaa27ee7192742b69c/5D270D14/t51.2885-15/e35/44580648_1309761052497575_371168451141423462_n.jpg?_nc_ht=scontent-syd2-1.cdninstagram.com,403,12,540,6,4684340745,False,184,lixo_in,BqBWkjlAcGn,1541898676,0.0,0.0,0.0,13.0,low,0.19,0.0,0.0,0.0,0.0,0.0,0.998,0.002,0.0,goodExposure,0.45,0.0,0.0,0.0,female,NoGlasses,0.09,0.98,0.13,0.93,0.29,0.26,0.05,False,0.0,16.5,9.1,True,True,low,0.02,False,False,False,0.0,527.7,319.0,565.7,318.6,503.5,290.3,542.3,285.0,711.7,372.2,682.0,354.9,743.1,362.0,716.7,333.5,600.3,262.9,470.2,236.8,692.7,298.7,790.3,330.7,493.5,521.6,619.2,560.5,533.1,447.3,564.6,407.2,642.0,470.6,642.3,429.9,603.6,334.5,649.6,350.7,602.0,450.4,534.3,298.5,706.7,349.3,558.6,564.4,567.9,539.6,568.0,537.5,573.5,519.9,438,373,212,438,1
Image may contain: 1 person,False,1080,1080,https://scontent-syd2-1.cdninstagram.com/vp/04c580928b657520bd65acc4524a921a/5CEC8131/t51.2885-15/e35/45468993_502945573547363_8590280036219617280_n.jpg?_nc_ht=scontent-syd2-1.cdninstagram.com,2853,109,1,950,7328240019,False,66,ali_kaid9126,BqgxJU7DB0g,1542952796,0.0,0.0,0.0,32.0,low,0.0,0.0,0.0,0.0,0.0,0.0,0.999,0.0,0.0,overExposure,0.84,0.1,0.1,0.1,male,NoGlasses,0.02,0.84,0.23,1.0,0.33,0.04,0.08,False,0.0,-0.2,-7.6,False,False,low,0.17,False,False,False,0.0,235.6,382.9,260.2,373.4,213.3,374.4,237.0,361.0,392.6,380.1,369.4,371.0,414.4,370.1,389.4,357.4,275.3,346.9,176.8,350.5,348.1,344.6,452.3,346.6,254.5,523.7,379.1,522.2,264.1,457.7,274.9,428.5,358.7,458.3,341.1,427.4,288.9,374.4,335.3,375.2,303.9,450.0,233.9,369.4,390.9,366.4,314.0,551.8,312.3,530.3,309.3,526.6,308.0,511.7,334,145,276,334,1
"Image may contain: 1 person, phone, indoor and closeup",True,1350,1080,https://scontent-syd2-1.cdninstagram.com/vp/e11129fe69c1bf28cef9f22298d389e7/5D0AB44B/t51.2885-15/e35/44491999_2137049373277678_2695043915117184912_n.jpg?_nc_ht=scontent-syd2-1.cdninstagram.com,874,57,3,070,9151270848,False,199,macksimizer,BqY_88LA1fO,1542692124,0.0,0.0,0.0,27.0,medium,0.7,0.0,0.001,0.0,0.0,0.001,0.997,0.0,0.0,goodExposure,0.4,0.4,0.4,0.1,male,NoGlasses,0.37,0.99,0.16,0.95,0.65,0.13,0.01,False,0.0,3.3,-2.7,False,False,medium,0.4,False,False,False,0.001,517.9,296.2,530.1,291.0,504.7,290.6,518.4,283.1,593.6,302.0,582.2,296.0,604.9,297.0,593.8,288.4,537.8,274.2,488.5,278.8,572.7,276.5,627.3,289.7,514.7,376.9,590.4,382.6,531.0,339.4,536.9,323.1,576.3,343.0,570.5,325.9,543.3,294.0,566.6,294.8,553.4,337.2,517.8,287.4,593.9,294.2,550.6,390.5,551.0,379.9,551.7,378.7,552.8,372.7,186,461,240,186,1
"Image may contain: 2 people, selfie",True,1350,1080,https://scontent-syd2-1.cdninstagram.com/vp/b5410d0a64bfa62da11435cb61812450/5D048E63/t51.2885-15/e35/47692885_651062941975227_4883046672163297590_n.jpg?_nc_ht=scontent-syd2-1.cdninstagram.com,676,29,1,175,2259126932,False,160,_l_u_c_a__1,Br3aeeqHKOn,1545860146,0.0,0.0,0.0,23.0,low,0.24,0.003,0.0,0.0,0.0,0.975,0.022,0.0,0.001,goodExposure,0.36,0.1,0.1,0.1,male,NoGlasses,0.2,0.92,0.31,0.96,0.19,0.2,0.13,False,0.0,-2.9,-18.9,False,True,low,0.19,False,False,False,0.975,602.4,508.8,636.1,500.2,574.1,498.6,602.5,485.5,798.8,492.4,762.2,486.6,834.7,477.3,796.0,467.7,646.7,446.2,501.7,441.0,739.2,441.2,894.3,420.9,628.7,743.1,813.1,722.4,622.9,653.1,636.4,609.7,774.2,640.5,743.8,598.7,656.9,503.5,718.7,497.2,679.2,653.2,612.9,495.0,804.8,477.4,712.5,823.1,708.9,778.0,704.2,733.1,701.2,705.8,496,459,365,496,2
"Image may contain: 1 person, outdoor and closeup",True,1080,1080,https://scontent-syd2-1.cdninstagram.com/vp/2b8d8f6b55f94241bd0dbdc8e980fadc/5D091A9D/t51.2885-15/e35/49447768_679280172465762_342753945461919298_n.jpg?_nc_ht=scontent-syd2-1.cdninstagram.com,93,1,875,415,4568441299,False,398,_emanuela.def_,Br3h4iVg4VY,1545864030,0.0,0.0,0.0,30.0,low,0.23,0.0,0.0,0.0,0.0,0.999,0.001,0.0,0.0,goodExposure,0.48,0.0,0.0,0.0,female,NoGlasses,0.01,0.91,0.03,1.0,0.15,0.13,0.32,False,0.0,1.4,-13.8,True,True,medium,0.45,False,False,False,0.999,433.7,225.4,442.7,223.1,425.5,222.6,433.8,218.0,480.1,226.8,472.2,222.3,488.9,224.8,481.5,219.8,446.7,213.1,415.3,212.2,463.0,212.0,499.9,215.3,438.8,272.6,476.4,273.3,440.4,247.0,444.2,238.3,469.1,248.5,464.9,239.6,448.5,223.2,462.3,222.9,452.0,243.7,431.1,220.9,476.7,223.1,454.7,283.8,454.8,276.5,454.6,268.1,454.7,262.1,105,402,193,105,1
"Image may contain: 1 person, closeup",False,1350,1080,https://scontent-syd2-1.cdninstagram.com/vp/b1364cf150d27eb6260e92432ac29146/5CEE6F39/t51.2885-15/e35/47583186_2232812310333341_5764599011073544215_n.jpg?_nc_ht=scontent-syd2-1.cdninstagram.com,491,28,1,302,1514587868,False,276,xxsjxn,Br57Ks1Hnle,1545944395,0.0,0.0,0.0,21.0,medium,0.6,0.0,0.0,0.0,0.0,0.0,0.998,0.002,0.0,goodExposure,0.74,0.1,0.1,0.1,male,NoGlasses,0.07,0.76,0.19,0.99,0.16,0.13,0.31,False,0.0,1.2,-4.4,True,True,low,0.0,False,False,False,0.0,252.0,401.7,296.4,388.6,212.8,375.0,257.2,360.6,519.7,402.7,476.8,386.8,562.3,379.3,515.4,362.4,339.4,327.6,168.8,305.6,431.9,328.8,612.7,316.5,282.2,662.7,486.2,667.1,309.1,542.5,326.9,495.1,451.3,553.9,427.8,497.4,345.8,399.5,415.1,398.0,369.7,533.4,251.0,379.0,511.2,380.8,380.2,707.1,379.1,677.2,376.7,662.6,374.6,632.9,587,86,225,587,1
"Image may contain: 1 person, standing",True,750,750,https://scontent-syd2-1.cdninstagram.com/vp/b5efbe615bf6fd5179216fc0af877f18/5D05F3BC/t51.2885-15/e35/47581661_226104314994275_6960831389199676501_n.jpg?_nc_ht=scontent-syd2-1.cdninstagram.com,59,6,210,144,396921520,False,173,artbyellinor,Br5uPu8FmPF,1545937620,0.0,0.0,0.0,33.0,medium,0.43,0.088,0.05,0.001,0.0,0.0,0.857,0.003,0.0,goodExposure,0.63,0.0,0.0,0.0,female,NoGlasses,0.13,0.04,1.0,0.29,0.67,0.25,0.15,False,0.0,2.8,-0.9,True,False,low,0.01,False,False,False,0.0,255.7,72.7,261.8,71.3,249.5,71.0,256.1,68.5,293.6,74.7,287.3,72.8,299.4,73.2,293.4,70.3,268.5,65.8,243.2,62.5,280.8,66.1,307.3,65.6,256.8,114.7,287.8,116.3,261.8,95.6,266.8,88.2,285.1,96.3,281.3,88.5,269.1,73.1,280.5,73.8,272.8,93.3,255.5,71.1,293.4,72.8,272.0,121.1,272.7,114.7,272.7,113.0,272.6,109.0,89,229,48,89,1
Image may contain: 1 person,True,750,750,https://scontent-syd2-1.cdninstagram.com/vp/96306948b0dec51edcab709e1081d524/5D237312/t51.2885-15/e35/17438773_813644102116908_7076012899956686848_n.jpg?_nc_ht=scontent-syd2-1.cdninstagram.com,23,0,191,75,997947052,False,53,mc_from_jc,BR60FyVAEoA,1490139664,0.99,0.0,0.0,24.0,low,0.0,0.0,0.0,0.0,0.0,1.0,0.0,0.0,0.0,goodExposure,0.52,0.0,0.0,0.0,female,Sunglasses,0.17,0.94,0.31,0.47,0.44,0.61,0.12,False,0.0,8.5,-2.3,True,True,low,0.27,False,False,False,1.0,399.5,314.6,414.0,312.6,388.4,307.4,402.4,303.7,480.9,324.6,468.2,318.2,494.8,319.9,482.2,312.8,426.1,296.1,369.8,291.3,457.5,300.6,517.3,309.8,394.4,390.5,465.0,400.8,403.4,364.5,416.6,350.9,460.1,371.8,452.3,355.5,429.3,318.6,451.9,321.4,429.5,376.4,401.2,308.9,480.8,317.8,422.6,417.3,424.6,406.5,425.9,401.8,426.0,397.1,180,345,267,180,1
"Image may contain: 1 person, selfie and closeup",False,1080,1080,https://scontent-syd2-1.cdninstagram.com/vp/f2a156358b72803f86d04b6d36816093/5D057533/t51.2885-15/e35/46219296_522285038289772_8660116689927654420_n.jpg?_nc_ht=scontent-syd2-1.cdninstagram.com,312,16,540,6,4684340745,False,184,lixo_in,BrJYBNOgpH6,1544315354,0.0,0.0,0.0,22.0,low,0.18,0.0,0.0,0.0,0.0,0.0,0.999,0.0,0.0,goodExposure,0.42,0.0,0.0,0.0,female,NoGlasses,0.09,0.95,0.14,0.81,0.31,0.47,0.15,False,0.0,0.9,13.0,True,True,low,0.07,False,False,False,0.0,537.9,215.3,576.8,203.5,499.5,196.9,542.6,176.5,739.9,213.5,702.1,204.4,770.3,191.2,733.7,175.3,611.3,135.7,452.8,144.5,707.2,144.3,831.4,138.4,555.6,431.7,696.2,424.6,579.8,341.1,603.0,299.1,697.8,333.8,681.8,292.6,616.6,208.1,675.5,208.9,649.6,328.8,537.1,194.0,729.8,194.2,633.5,457.2,634.7,426.4,637.3,424.1,641.6,405.0,459,404,80,459,1
"Image may contain: 1 person, selfie and closeup",False,1350,1080,https://scontent-syd2-1.cdninstagram.com/vp/0bfebd5d699d32065421454fc2130b43/5D2912DD/t51.2885-15/e35/47584594_568910276915757_3111875063379679257_n.jpg?_nc_ht=scontent-syd2-1.cdninstagram.com,478,19,1,307,1514587868,False,276,xxsjxn,BrnB3B1HPYD,1545310369,0.0,0.0,0.0,21.0,medium,0.59,0.0,0.0,0.0,0.0,0.0,0.945,0.055,0.0,goodExposure,0.54,0.1,0.1,0.1,male,NoGlasses,0.03,1.0,0.03,0.28,0.47,0.81,0.06,False,0.0,3.7,1.2,True,True,low,0.0,False,False,False,0.0,261.2,460.9,306.1,450.0,226.8,439.1,266.9,428.4,517.3,479.9,474.9,463.7,558.5,465.9,518.5,448.9,352.7,385.5,170.0,377.5,440.5,400.9,615.4,415.7,279.2,709.1,470.0,723.2,322.6,599.0,345.2,543.9,450.3,604.4,431.2,545.0,360.3,458.7,419.6,459.9,387.0,577.7,270.3,442.6,515.8,460.5,372.7,741.6,376.2,712.6,381.5,702.5,384.4,674.0,549,110,302,549,1
"Image may contain: 1 person, selfie",True,608,1080,https://scontent-syd2-1.cdninstagram.com/vp/161837ba7723db5affafd16aead928bd/5D02A6A1/t51.2885-15/e35/46231111_193703164814680_945176355898199876_n.jpg?_nc_ht=scontent-syd2-1.cdninstagram.com,389,12,1,530,1309921062,False,277,chiebangs,BrNQPadFv3d,1544445494,0.0,0.0,0.0,23.0,low,0.0,0.0,0.003,0.0,0.0,0.001,0.985,0.007,0.002,goodExposure,0.61,0.0,0.0,0.0,female,NoGlasses,0.12,0.99,0.09,0.95,0.27,0.24,0.05,False,0.0,-10.5,-15.6,True,True,low,0.0,False,False,False,0.001,530.2,143.0,537.6,138.7,522.1,140.6,529.0,134.2,574.7,132.2,565.7,131.4,580.9,127.7,572.3,124.4,534.4,126.9,511.2,131.3,556.6,120.1,590.2,116.1,544.1,185.1,577.4,178.5,540.6,164.2,542.3,156.0,567.8,159.0,560.9,151.9,542.5,137.9,556.6,135.1,551.3,161.4,530.3,137.8,573.9,127.3,559.7,190.2,558.1,182.2,557.6,182.4,556.2,176.6,102,504,106,102,1
