accessibility_caption,caption_is_edited,dimensions_height,dimensions_width,display_url,edge_media_preview_like_count,edge_media_to_comment_count,owner_followers,owner_following,owner_id,owner_is_verified,owner_posts,owner_username,shortcode,taken_at_timestamp,faceAttributes_accessories_glasses,faceAttributes_accessories_headwear,faceAttributes_accessories_mask,faceAttributes_age,faceAttributes_blur_blurLevel,faceAttributes_blur_value,faceAttributes_emotion_anger,faceAttributes_emotion_contempt,faceAttributes_emotion_disgust,faceAttributes_emotion_fear,faceAttributes_emotion_happiness,faceAttributes_emotion_neutral,faceAttributes_emotion_sadness,faceAttributes_emotion_surprise,faceAttributes_exposure_exposureLevel,faceAttributes_exposure_value,faceAttributes_facialHair_beard,faceAttributes_facialHair_moustache,faceAttributes_facialHair_sideburns,faceAttributes_gender,faceAttributes_glasses,faceAttributes_hair_bald,faceAttributes_hair_hairColor_black,faceAttributes_hair_hairColor_blond,faceAttributes_hair_hairColor_brown,faceAttributes_hair_hairColor_gray,faceAttributes_hair_hairColor_other,faceAttributes_hair_hairColor_red,faceAttributes_hair_invisible,faceAttributes_headPose_pitch,faceAttributes_headPose_roll,faceAttributes_headPose_yaw,faceAttributes_makeup_eyeMakeup,faceAttributes_makeup_lipMakeup,faceAttributes_noise_noiseLevel,faceAttributes_noise_value,faceAttributes_occlusion_eyeOccluded,faceAttributes_occlusion_foreheadOccluded,faceAttributes_occlusion_mouthOccluded,faceAttributes_smile,faceLandmarks_eyeLeftBottom_x,faceLandmarks_eyeLeftBottom_y,faceLandmarks_eyeLeftInner_x,faceLandmarks_eyeLeftInner_y,faceLandmarks_eyeLeftOuter_x,faceLandmarks_eyeLeftOuter_y,faceLandmarks_eyeLeftTop_x,faceLandmarks_eyeLeftTop_y,faceLandmarks_eyeRightBottom_x,faceLandmarks_eyeRightBottom_y,faceLandmarks_eyeRightInner_x,faceLandmarks_eyeRightInner_y,faceLandmarks_eyeRightOuter_x,faceLandmarks_eyeRightOuter_y,faceLandmarks_eyeRightTop_x,faceLandmarks_eyeRightTop_y,faceLandmarks_eyebrowLeftInner_x,faceLandmarks_eyebrowLeftInner_y,faceLandmarks_eyebrowLeftOuter_x,faceLandmarks_eyebrowLeftOuter_y,faceLandmarks_eyebrowRightInner_x,faceLandmarks_eyebrowRightInner_y,faceLandmarks_eyebrowRightOuter_x,faceLandmarks_eyebrowRightOuter_y,faceLandmarks_mouthLeft_x,faceLandmarks_mouthLeft_y,faceLandmarks_mouthRight_x,faceLandmarks_mouthRight_y,faceLandmarks_noseLeftAlarOutTip_x,faceLandmarks_noseLeftAlarOutTip_y,faceLandmarks_noseLeftAlarTop_x,faceLandmarks_noseLeftAlarTop_y,faceLandmarks_noseRightAlarOutTip_x,faceLandmarks_noseRightAlarOutTip_y,faceLandmarks_noseRightAlarTop_x,faceLandmarks_noseRightAlarTop_y,faceLandmarks_noseRootLeft_x,faceLandmarks_noseRootLeft_y,faceLandmarks_noseRootRight_x,faceLandmarks_noseRootRight_y,faceLandmarks_noseTip_x,faceLandmarks_noseTip_y,faceLandmarks_pupilLeft_x,faceLandmarks_pupilLeft_y,faceLandmarks_pupilRight_x,faceLandmarks_pupilRight_y,faceLandmarks_underLipBottom_x,faceLandmarks_underLipBottom_y,faceLandmarks_underLipTop_x,faceLandmarks_underLipTop_y,faceLandmarks_upperLipBottom_x,faceLandmarks_upperLipBottom_y,faceLandmarks_upperLipTop_x,faceLandmarks_upperLipTop_y,faceRectangle_height,faceRectangle_left,faceRectangle_top,faceRectangle_width,num_faces
No photo description available.,True,1080,1080,https://scontent-syd2-1.cdninstagram.com/vp/e7b9957ccbbbe31d790b0616509a9fd3/5D0FD399/t51.2885-15/e35/11371192_599446713529009_636424958_n.jpg?_nc_ht=scontent-syd2-1.cdninstagram.com,3,0,353,784,354105993,False,1,mrvccc,6XepP2D4ve,1439561891,1.0,0.0,0.0,51.0,low,0.03,0.019,0.002,0.005,0.0,0.973,0.001,0.0,0.0,goodExposure,0.27,0.4,0.1,0.1,male,Sunglasses,0.19,1.0,0.07,0.31,0.87,0.54,0.0,False,0.0,5.5,1.4,False,False,high,1.0,False,False,False,0.973,195.2,817.9,199.7,817.4,191.0,817.1,195.6,815.4,220.6,820.2,217.1,819.0,224.3,820.3,221.3,817.7,204.0,812.8,186.2,811.7,214.5,813.6,232.2,816.1,196.3,839.1,216.8,840.4,199.3,829.2,201.9,825.2,215.0,829.9,212.7,825.5,204.4,818.2,212.1,818.9,207.3,827.9,195.9,816.8,221.0,819.0,205.1,844.8,205.9,841.8,206.2,839.1,206.6,836.5,50,182,803,50,1
No photo description available.,True,1080,1080,https://scontent-syd2-1.cdninstagram.com/vp/1aa311535368c43519089d768f2800a8/5D1A6D14/t51.2885-15/e35/11356581_1159618570718561_1125156974_n.jpg?_nc_ht=scontent-syd2-1.cdninstagram.com,3,0,353,784,354105993,False,1,mrvccc,6XetnSD4vn,1439561927,1.0,0.0,0.0,27.0,low,0.0,0.0,0.0,0.0,0.0,1.0,0.0,0.0,0.0,overExposure,0.82,0.0,0.0,0.0,female,Sunglasses,0.23,0.58,0.52,0.91,0.22,0.3,0.35,False,0.0,-4.2,-4.1,True,True,low,0.0,False,False,False,1.0,528.1,276.5,563.7,262.0,485.1,266.3,524.5,245.1,713.8,255.0,674.8,251.1,744.4,238.4,709.0,228.6,579.1,217.3,457.7,211.4,650.1,206.0,774.5,186.1,559.6,463.4,712.5,452.7,563.6,381.8,577.1,342.0,682.8,374.9,663.3,334.9,593.4,263.3,642.4,258.8,618.0,368.3,531.6,257.1,716.6,239.9,632.6,479.5,631.0,451.3,628.5,461.6,630.0,439.3,431,412,136,431,1
Image may contain: 1 person,True,1350,1080,https://scontent-syd2-1.cdninstagram.com/vp/4dd33d81add4a110191863829936c954/5D28510A/t51.2885-15/e35/11349262_806504216125618_232560163_n.jpg?_nc_ht=scontent-syd2-1.cdninstagram.com,211,7,1,531,184518387,False,273,eldopleasesaythebaby,7kWpr2tPG3,1442141392,0.0,1.0,0.0,29.0,medium,0.55,0.0,0.0,0.0,0.0,0.001,0.999,0.0,0.0,goodExposure,0.26,0.4,0.4,0.4,male,NoGlasses,0.0,,,,,,,True,0.0,-17.6,-1.0,False,False,low,0.0,False,True,False,0.001,347.4,101.6,353.3,98.2,340.7,102.7,346.0,97.7,382.8,90.2,376.0,91.0,387.6,87.2,381.1,86.5,354.9,85.9,329.6,96.4,368.5,80.4,390.3,74.6,360.0,140.8,390.9,128.7,359.0,120.4,362.1,111.2,384.5,112.4,377.6,106.4,361.1,97.0,370.5,93.9,371.0,113.5,347.1,99.0,382.4,88.6,378.7,144.5,376.4,138.4,375.4,134.6,374.0,130.0,87,326,70,87,1
Image may contain: 1 person,True,612,612,https://scontent-syd2-1.cdninstagram.com/vp/70ca0d585efa1dfdd52ca7a80536d441/5D22370C/t51.2885-15/e35/11856681_1040449049328992_863929839_n.jpg?_nc_ht=scontent-syd2-1.cdninstagram.com,276,6,1,532,184518387,False,273,eldopleasesaythebaby,8FvwSFtPKM,1443261849,0.0,0.0,0.0,33.0,medium,0.26,0.0,0.003,0.0,0.0,0.002,0.987,0.008,0.0,goodExposure,0.63,0.1,0.4,0.4,male,NoGlasses,0.18,0.94,0.37,0.64,0.54,0.41,0.07,False,0.0,4.7,-25.7,False,False,low,0.08,False,False,False,0.002,380.2,226.0,387.8,224.5,373.6,221.8,381.2,219.4,426.1,229.0,419.2,225.7,433.1,225.7,425.7,223.0,390.2,213.1,367.9,206.0,407.0,213.3,451.1,219.5,380.2,281.6,425.6,285.1,382.6,256.1,388.9,244.9,416.9,261.2,410.0,248.1,394.6,225.0,407.8,225.5,394.9,255.2,378.2,221.8,424.1,224.6,397.3,295.3,397.3,286.3,397.7,283.6,397.6,278.4,120,340,192,120,1
Image may contain: 1 person,True,1350,1080,https://scontent-syd2-1.cdninstagram.com/vp/a698ae57048112633035629abdc15795/5CEB7B85/t51.2885-15/e35/12145349_523805374461326_785104494_n.jpg?_nc_ht=scontent-syd2-1.cdninstagram.com,238,6,1,531,184518387,False,273,eldopleasesaythebaby,8vdPLpNPAT,1444661427,0.0,1.0,0.0,29.0,low,0.0,0.0,0.007,0.007,0.0,0.405,0.204,0.376,0.0,goodExposure,0.73,0.4,0.4,0.1,male,NoGlasses,0.0,,,,,,,True,0.0,8.8,6.8,False,False,low,0.0,False,True,False,0.405,229.7,154.1,260.4,150.6,202.1,142.2,234.2,136.3,400.2,180.5,375.6,168.6,431.6,176.8,406.3,162.3,293.2,127.3,152.6,104.1,364.3,138.7,481.8,156.2,201.9,318.5,373.2,337.3,234.8,258.5,266.6,226.0,370.2,279.9,353.9,240.8,293.9,160.3,345.8,168.9,307.5,275.1,230.9,141.0,398.4,166.4,284.5,370.8,288.6,351.9,291.1,343.4,293.3,330.5,390,108,48,390,1
No photo description available.,True,612,612,https://scontent-syd2-1.cdninstagram.com/vp/c65dd2ccbacd003bb4da0ccfe25a52ad/5CEEBE21/t51.2885-15/e15/11246204_401465730055950_210731241_n.jpg?_nc_ht=scontent-syd2-1.cdninstagram.com,180,4,277,296,254199485,False,80,pasquale_92_,aosMuPRhhA,1371419946,1.0,0.0,0.0,24.0,low,0.1,0.0,0.0,0.0,0.0,1.0,0.0,0.0,0.0,goodExposure,0.65,0.1,0.1,0.1,male,Sunglasses,0.2,0.69,0.54,0.84,0.31,0.35,0.23,False,0.0,6.0,0.3,True,True,low,0.13,False,False,False,1.0,347.4,150.7,360.5,149.6,335.8,145.6,349.4,142.1,419.2,158.2,404.8,154.2,432.4,156.6,419.5,149.6,369.0,140.5,312.6,139.9,395.9,145.6,448.2,148.5,341.6,213.4,410.3,220.6,353.0,187.1,364.5,178.0,401.4,192.7,392.7,181.8,369.3,154.5,393.9,156.3,378.1,191.7,348.5,146.4,419.0,153.7,372.1,237.9,373.3,227.8,374.6,216.1,375.5,210.6,154,303,107,154,1
No photo description available.,True,612,612,https://scontent-syd2-1.cdninstagram.com/vp/e3dcf62e6c4aa8d411c139a55dcec57f/5D1C4999/t51.2885-15/e15/11357649_438961916276810_1455578186_n.jpg?_nc_ht=scontent-syd2-1.cdninstagram.com,386,13,1,530,184518387,False,273,eldopleasesaythebaby,aQuhW3NPEi,1370615857,0.0,0.0,0.0,31.0,low,0.09,0.001,0.0,0.0,0.0,0.0,0.764,0.234,0.0,goodExposure,0.64,0.1,0.1,0.1,male,NoGlasses,0.34,0.97,0.24,0.95,0.31,0.16,0.06,False,0.0,-0.9,-3.9,False,False,medium,0.39,False,False,False,0.0,276.1,137.1,280.1,135.7,271.8,136.0,276.2,133.3,304.7,136.5,300.2,135.3,308.7,134.3,304.2,132.4,284.0,130.4,265.5,131.3,295.7,128.6,316.0,129.4,277.8,173.4,304.5,172.6,279.1,156.8,283.6,150.0,300.8,156.9,296.8,150.5,286.2,136.6,293.6,136.5,290.2,157.0,276.5,135.9,304.6,134.3,291.0,180.1,290.4,175.6,289.3,171.8,289.2,168.9,75,253,117,75,1
Image may contain: 1 person,True,1350,1080,https://scontent-syd2-1.cdninstagram.com/vp/e35b2e5010ebfb6a091ee9c2cfab0876/5D07A596/t51.2885-15/e35/22582278_507137152976720_1756137326183972864_n.jpg?_nc_ht=scontent-syd2-1.cdninstagram.com,317,9,1,531,184518387,False,273,eldopleasesaythebaby,BabLGLPnz0x,1508405337,0.0,0.0,0.0,23.0,medium,0.33,0.0,0.003,0.0,0.0,0.186,0.809,0.002,0.0,goodExposure,0.74,0.1,0.1,0.1,male,NoGlasses,0.06,0.88,0.41,0.94,0.24,0.21,0.13,False,0.0,-8.0,-2.1,False,False,low,0.13,False,False,False,0.186,520.1,563.6,527.1,560.3,513.9,562.7,519.5,558.9,562.9,556.4,555.3,555.6,570.1,553.7,562.6,551.5,530.8,549.7,503.1,557.5,547.5,546.9,578.5,546.8,529.6,607.0,564.8,602.2,531.4,586.7,535.1,577.6,559.5,581.4,553.1,574.5,534.3,560.8,547.7,559.2,545.4,582.6,519.4,560.6,562.0,553.6,548.3,615.5,547.5,610.1,546.1,603.3,545.6,599.2,99,495,531,99,1
Image may contain: 1 person,True,810,1080,https://scontent-syd2-1.cdninstagram.com/vp/e7110622ccca83b00595e37312820ede/5D17B8B9/t51.2885-15/e35/22582548_145599976183024_8336241495279403008_n.jpg?_nc_ht=scontent-syd2-1.cdninstagram.com,165,3,885,494,4049016173,False,48,megsvin_mathew_,BagaUMBnu5Y,1508581088,0.0,0.0,0.0,33.0,low,0.2,0.0,0.0,0.0,0.0,0.001,0.999,0.0,0.0,goodExposure,0.63,0.4,0.6,0.1,male,NoGlasses,0.06,1.0,0.02,0.81,0.49,0.46,0.02,False,0.0,-5.8,-1.4,True,False,low,0.19,False,False,False,0.001,412.8,248.9,421.9,243.9,401.6,246.1,410.5,239.5,479.2,244.6,468.7,241.2,488.6,239.7,477.1,234.8,430.5,230.1,386.3,236.4,461.7,227.3,501.6,224.4,428.1,310.4,480.9,306.0,427.9,278.8,431.1,267.8,467.6,275.4,460.6,265.7,433.5,245.1,455.1,243.1,447.0,276.0,411.1,243.1,477.5,238.9,454.5,315.0,453.5,306.0,452.3,307.3,451.0,300.9,144,377,201,144,1
Image may contain: 1 person,True,1350,1080,https://scontent-syd2-1.cdninstagram.com/vp/68d9861cffae714ad9c750fc84d90fc9/5D1D1E32/t51.2885-15/e35/22858095_142415596389737_3037165924135206912_n.jpg?_nc_ht=scontent-syd2-1.cdninstagram.com,249,9,885,494,4049016173,False,48,megsvin_mathew_,BawY6_Kn-Qw,1509117228,0.0,0.0,0.0,24.0,high,0.79,0.0,0.0,0.0,0.0,0.0,0.994,0.005,0.0,goodExposure,0.67,0.1,0.1,0.1,male,NoGlasses,0.11,1.0,0.01,0.94,0.27,0.3,0.02,False,0.0,-4.5,0.3,True,False,low,0.21,False,False,True,0.0,534.2,548.7,561.4,539.8,507.7,541.8,533.7,529.2,716.0,541.2,687.2,532.7,740.9,531.2,713.0,519.4,585.5,493.4,469.2,503.1,665.8,483.8,777.3,492.7,561.7,710.3,731.3,702.9,573.7,628.7,593.0,591.0,692.1,625.4,672.2,593.6,602.9,539.2,655.8,537.9,634.5,613.4,530.8,536.3,711.2,527.7,645.3,731.3,645.7,711.9,643.8,709.3,642.4,690.8,393,437,417,393,1
Image may contain: 2 people,True,750,750,https://scontent-syd2-1.cdninstagram.com/vp/e57794b87b5e8768e0fb62b34e0ad8b0/5D23C444/t51.2885-15/e35/12747686_539804906197832_1153454972_n.jpg?_nc_ht=scontent-syd2-1.cdninstagram.com,285,8,1,531,184518387,False,273,eldopleasesaythebaby,BB4S_H2NPBj,1455695461,0.0,0.0,0.0,1.0,medium,0.3,0.001,0.0,0.0,0.001,0.029,0.316,0.008,0.645,goodExposure,0.63,0.0,0.0,0.0,female,NoGlasses,0.1,0.3,0.84,0.61,0.34,0.46,0.39,False,0.0,-2.1,-16.4,False,False,medium,0.33,False,False,False,0.029,71.8,146.4,93.4,139.3,51.2,135.6,72.1,124.9,185.7,136.0,165.4,129.9,203.2,127.7,183.6,116.1,93.0,95.3,24.3,94.1,145.4,81.9,228.5,86.9,91.5,276.3,183.3,282.2,94.3,212.0,105.7,193.4,166.5,217.0,152.1,192.1,106.8,140.7,136.3,138.4,121.3,216.9,73.9,132.5,184.0,124.0,130.1,328.0,128.7,302.2,126.1,269.4,126.9,250.4,289,0,59,276,1
Image may contain: 4 people,True,1350,1080,https://scontent-syd2-1.cdninstagram.com/vp/82550c4a7d3aa0070067b95009111a2f/5D1FE003/t51.2885-15/e35/23594229_1534548813306396_7732226564972085248_n.jpg?_nc_ht=scontent-syd2-1.cdninstagram.com,395,12,885,494,4049016173,False,48,megsvin_mathew_,Bbi-EkDnY3S,1510814427,0.0,0.0,0.0,23.0,low,0.11,0.0,0.002,0.002,0.001,0.543,0.001,0.45,0.0,goodExposure,0.67,0.6,0.6,0.1,male,NoGlasses,0.11,1.0,0.03,0.41,0.52,0.69,0.02,False,0.0,0.5,17.7,False,False,medium,0.4,False,False,False,0.543,104.1,629.5,138.6,626.6,74.2,624.1,103.6,615.7,297.4,630.9,271.0,626.9,321.2,623.6,296.3,618.2,183.3,579.2,12.9,593.8,263.3,578.8,363.1,590.8,98.7,789.0,273.1,785.2,147.9,740.4,169.4,710.5,281.3,734.8,261.9,706.8,180.4,637.2,244.5,635.6,228.3,740.6,106.9,623.2,298.6,623.4,198.2,836.6,198.5,813.3,203.6,796.5,206.1,779.9,388,7,514,388,3
Image may contain: 3 people,False,750,750,https://scontent-syd2-1.cdninstagram.com/vp/36ee90e40bae9113631c8e966d444f95/5D254B08/t51.2885-15/e35/23347857_145112766117197_4590817360746643456_n.jpg?_nc_ht=scontent-syd2-1.cdninstagram.com,58,1,1,409,8125185,False,332,fahrizaim,BbSbUaCFTbn,1510259336,0.0,0.0,0.0,46.0,medium,0.55,0.001,0.0,0.0,0.0,0.0,0.998,0.001,0.0,overExposure,0.88,0.1,0.1,0.1,male,NoGlasses,0.94,,,,,,,False,0.0,-9.3,15.1,False,False,medium,0.56,False,False,False,0.0,280.6,114.6,284.9,113.0,276.7,112.8,280.6,110.2,307.0,111.0,302.7,110.2,309.8,108.0,306.3,106.8,285.6,103.1,267.3,107.6,300.7,101.4,314.3,100.7,285.2,149.4,311.5,146.1,288.7,134.5,291.3,127.9,308.4,130.1,304.2,124.7,290.7,113.4,298.0,112.2,300.4,132.6,281.5,112.1,306.5,108.7,300.3,152.7,300.1,149.8,300.6,147.3,300.5,145.1,73,261,93,73,4
Image may contain: 2 people,True,750,750,https://scontent-syd2-1.cdninstagram.com/vp/5340a529b44ae251a9fbd97401c18724/5D1BCA20/t51.2885-15/e35/12822404_1134309463268912_294458428_n.jpg?_nc_ht=scontent-syd2-1.cdninstagram.com,9,1,513,2,2951545691,False,842,morelcia_morelli,BC4LiUsCtPZ,1457839039,0.0,0.0,0.0,27.0,low,0.05,0.0,0.0,0.0,0.0,0.991,0.009,0.0,0.0,goodExposure,0.71,0.0,0.0,0.0,female,NoGlasses,0.02,0.55,0.23,1.0,0.06,0.07,0.52,False,0.0,-1.7,22.4,True,True,high,0.77,False,False,False,0.991,123.1,260.9,152.9,253.1,95.6,246.5,125.3,233.5,275.9,260.7,250.4,256.2,295.0,248.7,272.6,236.8,192.2,227.2,51.4,223.1,247.1,228.9,325.9,213.9,130.3,386.7,266.5,385.2,169.3,345.3,186.0,325.1,260.2,342.3,247.1,321.9,188.0,260.9,231.7,261.5,228.7,351.8,123.1,242.7,271.6,245.8,209.4,423.4,208.7,405.0,214.3,404.1,216.2,393.7,320,44,159,320,2
Image may contain: 1 person,True,1080,1080,https://scontent-syd2-1.cdninstagram.com/vp/cc10232a246bb61a20347ccf5217f9aa/5D26A63C/t51.2885-15/e35/12784020_1720274498208179_870081950_n.jpg?_nc_ht=scontent-syd2-1.cdninstagram.com,13,3,513,2,2951545691,False,842,morelcia_morelli,BC5pxwoitMR,1457888448,0.0,0.0,0.0,22.0,medium,0.75,0.0,0.0,0.0,0.0,0.0,0.999,0.001,0.0,goodExposure,0.53,0.0,0.0,0.0,female,NoGlasses,0.07,0.12,0.95,0.96,0.21,0.11,0.34,False,0.0,-8.1,-9.3,True,True,high,0.78,False,False,False,0.0,271.9,473.9,293.5,464.0,248.8,467.4,267.0,454.2,419.8,446.6,393.4,443.9,440.9,430.9,416.9,427.1,297.3,422.6,194.2,432.7,356.5,417.2,485.2,394.7,293.9,629.1,439.2,605.8,306.1,562.3,318.2,527.9,400.7,551.6,382.8,520.2,316.0,462.1,362.5,456.0,349.2,560.6,272.6,462.9,420.0,435.7,369.2,663.3,366.6,647.0,362.7,615.8,360.0,610.0,359,175,356,359,1
Image may contain: 2 people,True,1350,1080,https://scontent-syd2-1.cdninstagram.com/vp/e52bd518a2c5151db189518993a9e6db/5D265810/t51.2885-15/e35/12677277_1055985341129104_420312887_n.jpg?_nc_ht=scontent-syd2-1.cdninstagram.com,13,2,513,2,2951545691,False,842,morelcia_morelli,BCB2jUQitCE,1456016097,0.0,0.0,0.0,31.0,high,0.85,0.0,0.001,0.0,0.0,0.975,0.024,0.0,0.0,goodExposure,0.52,0.0,0.0,0.0,female,NoGlasses,0.02,0.39,0.33,1.0,0.12,0.04,0.41,False,0.0,12.5,-0.7,True,True,medium,0.33,False,False,False,0.975,306.9,341.1,338.8,337.8,280.2,323.8,311.0,312.9,474.5,382.4,449.0,365.7,503.4,379.1,480.8,355.7,368.4,311.8,230.8,285.8,432.8,336.5,555.3,366.0,272.7,512.1,437.7,547.9,312.8,455.1,333.4,432.9,432.4,478.8,417.0,444.9,362.8,353.5,421.9,366.1,374.4,480.2,312.4,327.3,482.3,369.0,350.4,571.8,355.1,546.8,354.2,545.2,355.9,529.4,405,174,241,405,2
"Image may contain: 1 person, sitting and indoor",True,720,1080,https://scontent-syd2-1.cdninstagram.com/vp/ab5b779c2bf567d6e9371ce9b65370c6/5CEBB159/t51.2885-15/e35/25009550_1494486863982944_6667987102711414784_n.jpg?_nc_ht=scontent-syd2-1.cdninstagram.com,439,19,2,408,241431247,False,500,rocamora_2.0,Bcw_Lf6FC7L,1513432254,0.0,0.0,0.0,29.0,medium,0.35,0.0,0.0,0.0,0.0,0.982,0.018,0.0,0.0,goodExposure,0.66,0.0,0.0,0.0,female,NoGlasses,0.07,0.04,0.98,0.99,0.07,0.06,0.58,False,0.0,-8.3,-25.1,True,True,high,0.9,False,False,False,0.982,684.4,314.2,689.2,311.3,679.9,312.4,683.3,308.1,713.6,308.6,707.8,307.3,718.9,305.1,712.7,302.6,688.2,303.3,671.3,304.2,701.5,299.8,724.9,294.6,690.6,346.1,718.7,341.1,688.6,332.0,690.8,323.7,709.5,327.8,704.3,321.9,693.3,311.3,699.7,310.1,695.8,328.1,684.0,311.0,712.3,306.2,703.4,353.2,702.6,348.3,701.7,345.6,701.0,342.0,73,664,289,73,1
Image may contain: 1 person,True,1080,1080,https://scontent-syd2-1.cdninstagram.com/vp/f7bce17fab9a943ee148110baa381cd3/5CEE1996/t51.2885-15/e35/12530852_962849603750851_610483184_n.jpg?_nc_ht=scontent-syd2-1.cdninstagram.com,577,14,826,380,1908048550,False,18,pilkaarz97,BCYcYwkt3-g,1456774131,0.0,0.0,0.0,30.0,medium,0.44,0.001,0.001,0.0,0.0,0.014,0.983,0.0,0.002,overExposure,0.99,0.1,0.1,0.1,male,NoGlasses,0.01,1.0,0.04,0.83,0.64,0.36,0.02,False,0.0,-3.3,-34.0,False,False,low,0.11,False,False,False,0.014,467.2,149.3,469.6,148.1,465.0,147.8,467.4,146.5,480.5,147.9,477.9,146.8,482.9,146.2,480.3,145.3,471.2,144.6,462.7,142.4,474.2,143.0,486.1,141.8,470.6,171.6,482.5,170.6,468.4,160.7,470.1,156.8,478.6,159.9,476.5,155.8,470.8,148.2,475.1,148.0,472.5,160.5,467.7,147.9,480.5,146.5,474.9,176.1,474.6,172.9,474.5,170.7,474.4,168.7,42,454,138,42,1
"Image may contain: 1 person, closeup",True,1350,1080,https://scontent-syd2-1.cdninstagram.com/vp/e1f95173a39a30e3041c06467796d2f6/5D11A3DB/t51.2885-15/e35/26222245_1765943616813604_989356273663213568_n.jpg?_nc_ht=scontent-syd2-1.cdninstagram.com,440,18,2,240,392595219,False,282,ramona7777,BdR-q-AHaft,1514539284,0.0,0.0,0.0,28.0,medium,0.28,0.0,0.0,0.0,0.0,0.0,0.993,0.006,0.0,goodExposure,0.35,0.0,0.0,0.0,female,NoGlasses,0.15,0.97,0.09,0.55,0.41,0.68,0.13,False,0.0,-16.0,0.8,True,True,medium,0.3,False,False,False,0.0,291.8,399.9,322.5,381.7,258.6,397.2,286.1,373.6,483.1,348.7,449.5,347.0,508.3,327.4,474.5,322.3,328.7,306.1,193.6,359.0,408.4,284.6,542.6,257.0,361.1,583.0,516.7,531.3,363.9,495.2,370.1,449.4,467.5,466.6,442.2,434.8,358.8,369.3,408.4,354.8,409.3,456.5,289.1,380.2,475.2,331.5,449.4,596.5,441.2,571.8,438.2,552.9,433.9,535.5,438,190,233,438,1
Image may contain: 1 person,True,549,640,https://scontent-syd2-1.cdninstagram.com/vp/9d04727c9cd6d9837b68ed664dea9d20/5D061987/t51.2885-15/e35/25015325_540011216345635_1304733557544976384_n.jpg?_nc_ht=scontent-syd2-1.cdninstagram.com,396,17,1,857,2298983912,False,259,the_hottest_mess,BdRTphLAP7d,1514516727,0.0,0.99,0.0,33.0,low,0.05,0.003,0.022,0.0,0.0,0.003,0.968,0.003,0.0,goodExposure,0.52,0.0,0.0,0.0,female,NoGlasses,0.0,,,,,,,True,0.0,20.8,22.9,True,True,low,0.07,False,True,False,0.003,286.6,130.2,299.6,132.8,278.3,122.9,290.6,121.5,339.7,154.7,332.2,147.8,350.2,155.3,343.2,145.0,315.6,125.9,268.2,102.5,336.2,135.4,368.7,143.9,268.9,190.5,315.0,211.1,289.5,172.0,299.8,161.2,325.1,183.1,323.9,170.5,313.0,140.5,328.0,146.6,313.2,180.3,288.5,125.3,339.9,147.7,291.9,217.5,295.6,208.9,296.7,203.8,298.4,199.1,138,237,101,138,1
"Image may contain: 41 people, people sitting and indoor",True,810,1080,https://scontent-syd2-1.cdninstagram.com/vp/58d97e72554c101dd5c93cd367afa34b/5D1A0864/t51.2885-15/e35/26070507_1304602692979686_3924437435127169024_n.jpg?_nc_ht=scontent-syd2-1.cdninstagram.com,17,0,434,376,683884360,False,690,deepikag90,BeAhIHSBYHk,1516100852,1.0,0.0,0.0,33.0,low,0.0,0.0,0.0,0.0,0.0,1.0,0.0,0.0,0.0,goodExposure,0.72,0.1,0.1,0.1,male,ReadingGlasses,0.1,1.0,0.0,0.87,0.64,0.4,0.01,False,0.0,-2.0,-3.3,False,True,low,0.11,False,False,False,1.0,905.1,439.7,908.5,439.2,901.7,439.0,905.2,438.4,929.4,440.2,926.1,439.8,932.9,439.5,929.2,438.6,912.4,435.9,895.9,434.5,923.0,435.8,938.8,434.8,906.9,461.2,931.4,461.1,908.9,452.1,911.3,447.7,927.2,451.7,924.4,447.6,913.6,440.2,920.7,440.4,917.5,452.5,904.8,438.7,929.2,439.4,919.6,469.3,919.5,465.5,919.2,462.0,919.3,459.7,52,892,424,52,13
Image may contain: 1 person,True,1349,1080,https://scontent-syd2-1.cdninstagram.com/vp/33a7041b87ffa8b9cfcd7118f73cc652/5D2055E0/t51.2885-15/e35/27575931_2062245854007158_1351675273757589504_n.jpg?_nc_ht=scontent-syd2-1.cdninstagram.com,33,1,434,376,683884360,False,690,deepikag90,Bey9LKxhBzb,1517793279,0.0,0.0,0.0,24.0,low,0.0,0.0,0.0,0.0,0.0,1.0,0.0,0.0,0.0,goodExposure,0.53,0.0,0.0,0.0,female,NoGlasses,0.01,0.98,0.09,0.99,0.08,0.15,0.12,False,0.0,-1.7,-5.5,True,False,low,0.0,False,False,False,1.0,458.4,213.0,463.7,211.8,452.7,211.8,458.5,209.2,491.2,211.8,485.7,210.8,496.5,210.1,490.5,207.8,464.7,200.8,444.8,204.2,482.4,199.5,505.8,204.5,459.8,243.8,493.5,242.2,463.3,227.7,467.1,220.8,486.0,227.3,481.2,221.2,468.9,211.5,478.6,211.3,473.5,226.1,458.1,210.7,490.8,209.9,476.1,253.3,475.7,249.3,475.2,241.0,474.8,237.9,74,438,189,74,1
Image may contain: 1 person,True,640,640,https://scontent-syd2-1.cdninstagram.com/vp/36f02f811c812969a6b2270487abef12/5D067E41/t51.2885-15/e35/13249729_185827688480736_1308619002_n.jpg?_nc_ht=scontent-syd2-1.cdninstagram.com,971,9,8,107,1355490160,False,462,leighc_78,BF6BYoggoZz,1464343276,0.0,1.0,0.0,32.0,medium,0.42,0.0,0.005,0.0,0.0,0.002,0.988,0.004,0.0,goodExposure,0.49,0.1,0.1,0.1,male,NoGlasses,0.0,,,,,,,True,0.0,-26.1,-20.2,False,False,high,0.84,False,True,False,0.002,196.4,308.1,208.6,297.7,183.2,311.4,192.3,299.0,272.5,264.1,257.0,267.1,282.6,252.6,267.1,253.6,200.1,276.4,156.9,299.6,236.3,251.5,293.4,221.4,235.2,388.7,306.9,349.9,222.3,345.2,225.7,325.7,275.9,319.1,260.0,312.7,219.3,292.9,241.2,280.6,240.9,337.7,196.0,302.4,266.8,258.9,273.5,397.6,268.6,387.0,261.7,371.7,257.9,364.7,203,147,224,203,1
"Image may contain: 1 person, hat, tree, outdoor and closeup",True,1350,1080,https://scontent-syd2-1.cdninstagram.com/vp/5c80c7ce621502b2d0ff24f731c78cee/5D0AC615/t51.2885-15/e35/28754557_1837254136567408_2290856111676325888_n.jpg?_nc_ht=scontent-syd2-1.cdninstagram.com,672,19,1,530,184518387,False,273,eldopleasesaythebaby,Bf8akWQHGma,1520258163,0.0,0.96,0.0,20.0,low,0.06,0.0,0.0,0.0,0.0,1.0,0.0,0.0,0.0,goodExposure,0.55,0.1,0.1,0.1,male,NoGlasses,0.0,,,,,,,True,0.0,-8.7,4.2,False,False,low,0.18,False,True,False,1.0,399.4,688.7,427.7,680.0,368.7,687.8,396.1,673.1,591.3,657.9,560.9,658.9,620.7,647.7,588.5,641.3,444.6,626.4,305.4,653.1,532.4,614.1,660.9,605.4,404.8,870.5,633.7,834.1,440.1,790.7,464.7,754.4,591.2,772.3,557.9,738.9,468.1,678.8,526.6,670.1,527.6,786.7,398.5,681.8,596.3,651.5,533.5,929.7,529.6,903.1,524.7,862.3,522.3,844.3,447,288,537,447,1
Image may contain: 1 person,True,640,640,https://scontent-syd2-1.cdninstagram.com/vp/7562ea9dd59c0980074d848d36112c43/5D11B087/t51.2885-15/e35/13258978_1083630215027202_1097268563_n.jpg?_nc_ht=scontent-syd2-1.cdninstagram.com,464,15,826,379,1908048550,False,18,pilkaarz97,BFhaV8bt378,1463517500,0.0,0.0,0.0,30.0,low,0.2,0.001,0.0,0.0,0.0,0.007,0.986,0.006,0.0,goodExposure,0.54,0.1,0.1,0.1,male,NoGlasses,0.01,0.99,0.06,0.44,0.71,0.61,0.03,False,0.0,14.1,16.5,False,False,low,0.0,False,False,True,0.007,291.0,119.7,293.3,119.7,289.2,118.3,291.2,118.0,304.8,123.5,302.8,122.5,306.9,123.5,304.9,122.0,298.1,117.2,285.9,114.4,302.5,118.7,312.1,122.6,287.0,140.0,299.2,143.1,290.6,129.9,293.4,127.4,302.2,132.8,301.3,129.4,296.6,121.1,301.0,122.4,297.8,131.5,291.4,118.9,304.8,122.9,293.3,145.8,294.0,143.2,294.1,140.7,294.4,138.9,40,276,111,40,1
Image may contain: 1 person,False,810,1080,https://scontent-syd2-1.cdninstagram.com/vp/17ea6eba8dc097cf1e69f62fc14a7ba5/5CEDA3A6/t51.2885-15/e35/13102460_788908474573303_514727013_n.jpg?_nc_ht=scontent-syd2-1.cdninstagram.com,68,1,1,177,220123859,False,886,nensyshenovna,BFScjmRvFJo,1463015344,0.0,0.0,0.0,26.0,low,0.0,0.0,0.0,0.0,0.0,1.0,0.0,0.0,0.0,goodExposure,0.52,0.0,0.0,0.0,female,NoGlasses,0.07,0.91,0.24,0.9,0.26,0.35,0.15,False,0.0,-0.2,14.6,True,True,medium,0.57,False,False,False,1.0,354.6,449.2,375.5,444.9,333.5,442.9,355.4,434.0,474.0,450.9,454.6,448.4,490.4,444.4,472.6,435.6,398.4,417.7,300.8,415.0,450.1,423.2,518.6,416.8,357.0,556.9,465.1,555.0,384.0,520.2,396.0,501.9,459.5,519.6,450.7,501.7,401.3,449.5,439.7,451.3,428.3,525.7,350.2,442.0,464.9,443.8,414.1,587.4,416.1,569.3,419.7,570.0,422.1,560.9,253,287,376,253,1
"Image may contain: 1 person, closeup",True,428,640,https://scontent-syd2-1.cdninstagram.com/vp/cb937fadb3ff689ca568e51cc40b37aa/5D11CC86/t51.2885-15/e35/37220552_478007209308476_1949217705529704448_n.jpg?_nc_ht=scontent-syd2-1.cdninstagram.com,1126,37,1,608,464456598,False,65,angi_elle,BggC0mglMrj,1521453673,0.0,0.0,0.0,22.0,high,0.78,0.0,0.0,0.0,0.0,0.0,0.782,0.217,0.001,goodExposure,0.59,0.0,0.0,0.0,female,NoGlasses,0.22,0.7,0.39,0.19,0.26,0.86,0.57,False,0.0,3.7,-9.9,True,True,low,0.0,False,False,False,0.0,276.3,94.5,289.2,90.1,265.5,87.2,278.6,80.2,345.6,97.4,332.5,92.8,359.1,89.5,344.5,82.0,292.1,70.3,250.1,62.3,318.9,70.5,374.3,66.8,274.6,176.4,335.3,177.1,279.1,133.4,288.6,118.2,326.4,136.5,320.7,119.8,298.6,91.5,318.9,92.9,299.8,134.1,279.7,87.0,349.7,88.8,302.3,196.9,303.3,183.2,302.1,172.1,301.6,162.1,176,220,43,176,1
"Image may contain: 2 people, people smiling, child, baby, closeup and indoor",True,810,1080,https://scontent-syd2-1.cdninstagram.com/vp/8de52b632a92891475d340920b87ffe0/5D27AB9D/t51.2885-15/e35/28428433_1242171212579642_2096769460147847168_n.jpg?_nc_ht=scontent-syd2-1.cdninstagram.com,173,2,786,949,1702950354,False,125,yanchik_0711,BgLHGaHATvX,1520751273,0.0,0.0,0.0,29.0,medium,0.36,0.0,0.001,0.0,0.0,0.991,0.008,0.0,0.0,goodExposure,0.5,0.0,0.0,0.0,female,NoGlasses,0.43,0.65,0.63,0.67,0.65,0.38,0.12,False,0.0,35.2,-25.5,True,True,medium,0.45,False,False,False,0.991,771.6,105.4,796.8,112.7,759.9,82.6,790.3,81.8,887.5,174.3,869.5,153.8,914.8,177.2,902.2,149.5,815.5,65.5,761.3,31.9,885.8,100.0,972.2,159.4,719.4,224.0,824.5,278.9,742.8,176.1,768.8,158.0,817.5,228.5,818.2,190.6,808.2,120.3,840.3,138.5,773.0,191.2,786.5,95.2,897.2,161.4,748.9,269.7,756.4,251.6,754.5,253.2,762.2,238.7,300,651,37,300,2
"Image may contain: 3 people, outdoor",False,1080,1080,https://scontent-syd2-1.cdninstagram.com/vp/0e63092ab0a51e592ea0d73dffcad504/5D0C3596/t51.2885-15/e35/28432808_581819678845228_5752797913453428736_n.jpg?_nc_ht=scontent-syd2-1.cdninstagram.com,77,5,935,1,237614247,False,150,martingmiro,BgMlRoHhIHu,1520800648,0.0,0.99,0.0,23.0,low,0.21,0.0,0.0,0.0,0.0,1.0,0.0,0.0,0.0,goodExposure,0.58,0.1,0.1,0.1,male,NoGlasses,0.0,,,,,,,True,0.0,11.0,4.2,True,True,low,0.14,False,True,False,1.0,36.2,263.7,53.2,264.2,19.9,256.5,38.5,254.8,133.6,287.5,119.0,282.3,149.0,289.1,134.9,280.1,78.4,242.9,2.2,232.5,122.3,255.2,182.5,275.7,26.6,358.9,118.1,377.4,50.7,313.6,64.4,298.2,114.2,326.2,106.8,307.5,74.4,272.1,105.8,278.9,86.2,314.0,37.2,259.9,132.1,283.9,69.7,390.4,72.5,378.7,77.1,359.2,78.9,350.8,215,0,209,189,2
"Image may contain: 2 people, outdoor and closeup",False,640,640,https://scontent-syd2-1.cdninstagram.com/vp/61cd88a313d4b1129bf3d46a68ea7bf4/5D2739A8/t51.2885-15/e35/28763702_214583999122469_5062019803338768384_n.jpg?_nc_ht=scontent-syd2-1.cdninstagram.com,68,4,935,1,237614247,False,150,martingmiro,BgRsN-mhVhL,1520972060,0.0,1.0,0.0,34.0,low,0.0,0.0,0.01,0.0,0.0,0.565,0.423,0.001,0.0,underExposure,0.02,0.6,0.6,0.6,male,NoGlasses,0.0,,,,,,,True,0.0,8.6,0.7,False,False,low,0.26,False,True,False,0.565,122.1,158.2,133.1,157.9,112.1,153.8,122.9,151.9,190.0,170.5,180.1,164.3,202.1,168.7,192.0,161.6,142.4,140.8,97.0,136.1,181.1,143.1,224.4,152.1,116.9,223.5,177.6,237.6,135.6,195.4,142.4,185.9,173.8,201.8,168.4,189.5,149.3,162.6,167.7,165.0,154.2,198.7,121.7,154.7,192.3,165.5,142.2,252.1,143.8,242.8,147.7,229.6,148.4,224.1,155,75,117,155,2
"Image may contain: 1 person, selfie and closeup",True,387,640,https://scontent-syd2-1.cdninstagram.com/vp/965c048da51f8053615eb98e0829fbe3/5CED0A96/t51.2885-15/e35/37181070_2145517345737712_8034126387507888128_n.jpg?_nc_ht=scontent-syd2-1.cdninstagram.com,774,30,1,607,464456598,False,65,angi_elle,BgyC4nRnhyh,1522057685,0.0,0.0,0.0,22.0,low,0.0,0.0,0.0,0.0,0.0,0.026,0.959,0.014,0.0,goodExposure,0.59,0.0,0.0,0.0,female,NoGlasses,0.12,0.25,0.28,0.53,0.19,0.81,0.87,False,0.0,26.5,-3.0,True,True,low,0.0,False,False,False,0.026,300.1,86.7,310.7,88.4,292.4,79.4,304.3,80.1,368.6,120.1,359.1,111.2,380.9,121.8,372.9,111.8,326.6,72.2,286.6,47.7,358.7,86.0,405.4,105.7,270.5,173.5,323.5,198.5,294.6,135.2,306.4,122.1,337.4,153.5,338.6,135.5,324.3,97.5,346.4,107.6,318.0,137.8,301.2,82.0,371.1,115.1,289.2,200.2,294.9,188.8,297.8,182.2,302.4,172.9,187,224,46,187,1
"Image may contain: 1 person, outdoor",True,1349,1080,https://scontent-syd2-1.cdninstagram.com/vp/54480d583ba7d9fc4399d63fd34f5c52/5CED04FC/t51.2885-15/e35/29414901_1951168475199022_7100393526625566720_n.jpg?_nc_ht=scontent-syd2-1.cdninstagram.com,666,22,1,531,184518387,False,273,eldopleasesaythebaby,Bg_Ftk5HHqj,1522495375,0.0,0.0,0.0,3.0,medium,0.35,0.001,0.001,0.0,0.0,0.005,0.919,0.074,0.0,goodExposure,0.6,0.0,0.0,0.0,male,NoGlasses,0.03,0.84,0.59,0.71,0.54,0.34,0.08,False,0.0,2.3,1.2,False,False,low,0.18,False,False,False,0.005,669.1,297.0,685.6,291.8,654.9,289.6,670.0,279.0,752.3,302.2,735.8,295.4,768.2,296.1,752.7,282.9,700.7,261.7,634.5,253.6,734.1,267.0,793.8,265.5,667.3,422.9,750.8,432.1,680.3,362.1,691.4,332.9,742.4,359.9,729.7,332.9,698.9,292.7,723.6,294.7,715.0,345.2,675.3,289.8,755.1,293.3,708.5,456.0,710.0,432.4,706.9,421.7,707.9,407.5,250,588,229,250,1
Image may contain: 1 person,True,480,640,https://scontent-syd2-1.cdninstagram.com/vp/b344dd93bbb2a1e872038dab1532aa9e/5D1FA94F/t51.2885-15/e35/13736133_1061650250578297_313711704_n.jpg?_nc_ht=scontent-syd2-1.cdninstagram.com,37,5,388,578,193484196,False,166,jeieff,BH65ua4BHRY,1468667782,1.0,0.0,0.0,28.0,low,0.17,0.001,0.047,0.0,0.0,0.0,0.936,0.016,0.0,goodExposure,0.61,0.1,0.1,0.1,male,Sunglasses,0.25,0.9,0.38,0.66,0.42,0.48,0.12,False,0.0,-9.4,-3.7,True,True,low,0.22,False,False,False,0.0,453.0,68.4,463.7,60.9,439.3,65.2,450.5,56.9,531.3,56.8,515.7,53.1,542.3,48.6,528.7,43.7,472.1,44.5,415.0,56.1,498.1,39.9,562.2,31.2,465.3,139.8,543.3,126.4,469.8,103.5,475.1,90.6,521.1,95.4,510.7,85.6,478.1,59.3,498.5,56.3,494.4,100.4,450.7,61.7,529.7,49.4,506.8,156.2,504.2,144.1,501.9,137.3,500.5,129.0,177,408,5,177,1
Image may contain: 1 person,True,640,640,https://scontent-syd2-1.cdninstagram.com/vp/9edfaf95750a78ff7af90655d2c9dfa2/5D07DB6D/t51.2885-15/e35/13534057_592491297579179_1885589340_n.jpg?_nc_ht=scontent-syd2-1.cdninstagram.com,539,11,826,380,1908048550,False,18,pilkaarz97,BHaVBkKBvM4,1467574798,0.0,0.0,0.0,28.0,low,0.0,0.0,0.0,0.0,0.0,0.0,0.992,0.008,0.0,goodExposure,0.34,0.1,0.1,0.1,male,NoGlasses,0.01,1.0,0.0,0.58,0.53,0.64,0.01,False,0.0,12.4,-13.2,False,False,high,1.0,False,False,False,0.0,93.3,66.6,96.2,65.6,91.0,64.1,94.1,62.7,108.9,69.6,105.5,67.5,112.2,68.3,109.5,65.6,98.3,60.9,87.3,59.1,104.5,62.3,115.8,66.2,90.5,85.8,104.7,89.2,92.4,76.8,94.3,73.2,102.8,79.5,102.3,75.5,97.3,66.8,102.8,68.0,96.4,78.1,94.8,64.5,110.3,67.7,95.4,93.5,95.9,90.6,96.7,87.2,96.9,84.9,42,78,55,42,1
"Image may contain: 1 person, indoor",True,1350,1080,https://scontent-syd2-1.cdninstagram.com/vp/17e48f08d2beacd86af4e41e03658268/5D01ADA4/t51.2885-15/e35/30077840_172895026753732_2750293565102882816_n.jpg?_nc_ht=scontent-syd2-1.cdninstagram.com,772,24,1,528,184518387,False,273,eldopleasesaythebaby,BhhH5EbAO6K,1523637369,0.0,1.0,0.0,28.0,low,0.0,0.0,0.001,0.0,0.0,0.003,0.996,0.0,0.0,goodExposure,0.58,0.4,0.4,0.4,male,NoGlasses,0.0,,,,,,,True,0.0,-14.2,-3.7,False,False,medium,0.59,False,True,False,0.003,374.2,553.7,388.2,545.3,358.8,552.7,371.0,542.2,460.0,533.8,444.4,532.8,472.5,525.9,455.8,522.0,388.4,514.9,332.3,540.8,424.7,507.3,487.7,499.2,403.3,636.1,472.8,620.0,401.0,600.0,405.0,578.5,456.1,584.3,440.4,570.3,402.1,543.6,427.4,537.7,425.6,588.5,374.1,545.7,456.8,527.1,440.8,645.3,437.5,632.3,437.8,628.0,435.2,620.0,196,328,484,196,1
Image may contain: 1 person,True,1350,1080,https://scontent-syd2-1.cdninstagram.com/vp/9d07235e64b2eae9e119a99b6904c212/5D1D076B/t51.2885-15/e35/29716536_875423232645427_7620795889040228352_n.jpg?_nc_ht=scontent-syd2-1.cdninstagram.com,589,14,1,529,184518387,False,273,eldopleasesaythebaby,BhRudiBnNPd,1523120720,0.0,0.0,0.0,29.0,low,0.22,0.0,0.001,0.0,0.0,0.001,0.992,0.006,0.0,goodExposure,0.46,0.4,0.4,0.4,male,NoGlasses,0.06,1.0,0.02,0.78,0.6,0.42,0.01,False,0.0,4.1,-26.6,False,False,low,0.0,False,False,False,0.001,656.7,668.3,663.9,666.5,649.2,666.3,657.1,663.7,698.7,669.4,691.1,667.3,705.6,668.1,698.4,665.4,665.8,653.3,644.4,654.0,683.8,653.9,719.1,659.4,659.4,719.5,694.6,721.7,657.8,694.5,663.2,685.8,689.3,696.3,684.2,687.5,667.5,666.1,683.6,667.3,669.0,692.2,655.3,665.5,697.1,667.4,670.6,728.6,670.8,721.1,671.9,717.2,672.3,710.5,106,622,639,106,1
"Image may contain: 1 person, sunglasses, beard and closeup",False,1349,1080,https://scontent-syd2-1.cdninstagram.com/vp/b54a0378f3607378af81b3c29440ee25/5D2141F6/t51.2885-15/e35/30944482_332361193957023_9216331013498601472_n.jpg?_nc_ht=scontent-syd2-1.cdninstagram.com,77,6,935,1,237614247,False,150,martingmiro,BiH8GYkDkbT,1524939809,0.99,0.97,0.0,32.0,low,0.1,0.0,0.006,0.0,0.0,0.104,0.89,0.0,0.0,goodExposure,0.47,0.1,0.1,0.1,male,Sunglasses,0.0,,,,,,,True,0.0,5.2,1.2,False,False,low,0.02,False,True,False,0.104,483.9,446.8,523.4,439.8,454.7,427.0,490.4,410.6,709.3,468.3,671.0,454.1,746.2,453.5,710.5,430.0,561.5,386.6,422.7,377.2,657.8,391.7,782.2,394.9,477.4,633.3,667.5,644.4,525.9,547.6,554.3,513.0,655.6,555.2,636.3,519.8,574.1,447.9,629.0,452.8,594.0,545.8,491.7,426.2,702.7,446.8,577.0,686.1,577.4,659.5,581.2,635.3,582.5,616.5,454,360,307,454,1
"Image may contain: 2 people, people standing and indoor",True,1080,1080,https://scontent-syd2-1.cdninstagram.com/vp/94c5c282c8317d1192bf899d71fde977/5D10FDFB/t51.2885-15/e35/33615303_2115262038738058_7748129437299769344_n.jpg?_nc_ht=scontent-syd2-1.cdninstagram.com,524,16,2,239,392595219,False,282,ramona7777,Bj0quOZgB-0,1528588132,0.0,0.0,0.0,24.0,medium,0.3,0.0,0.0,0.0,0.0,0.955,0.045,0.0,0.0,goodExposure,0.55,0.0,0.0,0.0,female,NoGlasses,0.05,0.91,0.24,0.94,0.25,0.25,0.14,False,0.0,-6.7,-2.7,True,True,low,0.19,False,False,False,0.955,535.6,305.4,539.2,303.6,531.6,303.3,535.7,300.9,559.4,302.9,555.2,301.9,562.4,300.6,558.7,298.3,542.3,295.6,525.9,297.5,550.8,294.6,568.2,293.0,537.9,328.0,562.0,325.8,541.9,317.8,543.5,313.5,556.9,316.6,554.4,312.2,543.7,304.0,551.5,303.0,548.7,316.4,535.0,302.8,558.3,300.6,551.4,332.3,551.1,328.7,551.3,328.3,550.8,325.4,55,521,286,55,1
"Image may contain: 4 people, people standing and closeup",True,1080,1080,https://scontent-syd2-1.cdninstagram.com/vp/ee31e711619ab46afb32f046f56932dd/5D0B561E/t51.2885-15/e35/33835981_455475388227625_3465977052400713728_n.jpg?_nc_ht=scontent-syd2-1.cdninstagram.com,22,1,229,143,3669980093,False,203,mrs_ila.dea,Bj4gsboArDN,1528717092,0.0,0.0,0.0,21.0,low,0.21,0.0,0.001,0.0,0.0,0.921,0.078,0.0,0.0,goodExposure,0.56,0.0,0.0,0.0,female,NoGlasses,0.03,0.07,0.88,0.99,0.08,0.08,0.65,False,0.0,0.8,-1.7,True,True,low,0.0,False,False,False,0.921,95.8,246.8,120.5,242.7,73.6,237.0,97.8,230.9,243.4,257.3,217.5,249.2,268.2,252.3,245.6,240.8,145.1,190.7,36.4,196.8,204.9,196.7,300.3,213.2,106.5,387.1,246.7,389.7,121.6,321.7,135.1,295.9,227.2,326.9,209.4,299.4,151.3,246.9,193.6,248.1,173.0,321.2,96.8,237.6,246.3,247.4,173.4,418.6,175.1,395.9,174.4,388.4,176.0,373.0,326,11,150,326,3
Image may contain: 2 people,False,1080,1080,https://scontent-syd2-1.cdninstagram.com/vp/d24459d832def8138b34c868ce3c870c/5D2559C3/t51.2885-15/e35/14099814_1255316704502941_1896135823_n.jpg?_nc_ht=scontent-syd2-1.cdninstagram.com,107,2,1,176,220123859,False,888,nensyshenovna,BJe4A_Sj540,1472022329,1.0,0.0,0.0,57.0,low,0.0,0.001,0.0,0.0,0.0,0.999,0.0,0.0,0.0,goodExposure,0.44,0.0,0.0,0.0,female,Sunglasses,0.09,0.54,0.47,0.99,0.23,0.11,0.27,False,0.0,-16.9,7.6,True,True,high,0.8,False,False,False,0.999,564.6,487.8,569.4,486.2,559.8,487.8,564.0,484.6,590.4,480.8,586.0,481.6,593.9,479.0,589.6,477.8,572.3,481.0,550.7,485.4,583.3,478.1,600.2,471.5,574.5,513.8,597.6,507.1,574.2,503.4,576.5,497.6,591.7,498.5,587.8,494.8,575.1,486.1,582.1,484.1,583.8,500.4,565.5,485.8,590.9,479.0,588.1,517.0,587.3,513.6,587.1,513.5,586.6,510.7,61,552,466,61,2
Image may contain: 1 person,True,1080,1080,https://scontent-syd2-1.cdninstagram.com/vp/77233c70f1c9ce47f298b77f8248727a/5CF00462/t51.2885-15/e35/14156135_1068870773190048_74771847_n.jpg?_nc_ht=scontent-syd2-1.cdninstagram.com,45,0,906,541,404728967,False,485,adypratama14,BJqDI4TDx6E,1472397259,1.0,0.0,0.0,29.0,medium,0.66,0.0,0.0,0.0,0.0,0.0,0.989,0.011,0.0,goodExposure,0.73,0.4,0.4,0.1,male,ReadingGlasses,0.21,1.0,0.03,0.93,0.41,0.27,0.02,False,0.0,12.4,8.2,False,False,low,0.09,False,False,False,0.0,474.1,115.9,482.4,116.1,467.0,112.6,475.2,113.0,518.6,128.8,512.9,124.6,525.1,129.2,519.9,125.5,495.2,106.3,462.0,98.6,509.1,111.1,537.0,117.6,466.5,167.8,506.7,178.3,476.9,145.3,485.2,138.3,507.7,152.6,504.3,143.1,491.6,120.0,503.6,123.2,494.3,149.0,474.9,114.2,519.3,126.9,486.8,182.8,488.3,175.2,488.8,173.2,490.0,166.9,110,437,91,110,1
"Image may contain: 1 person, eyeglasses, stripes and closeup",True,1080,1080,https://scontent-syd2-1.cdninstagram.com/vp/b54a13ddd039664d7269f37f9d58a5ce/5D23397F/t51.2885-15/e35/34173498_889121944621197_6229380996584701952_n.jpg?_nc_ht=scontent-syd2-1.cdninstagram.com,718,17,575,242,1032528843,False,67,weeeronikaaa,BjznGO1DlAR,1528552677,1.0,0.0,0.0,26.0,low,0.06,0.0,0.001,0.0,0.0,0.977,0.022,0.0,0.0,goodExposure,0.52,0.0,0.0,0.0,female,ReadingGlasses,0.14,0.32,0.72,0.89,0.24,0.29,0.42,False,0.0,-8.6,-19.5,False,True,low,0.0,False,False,False,0.977,378.1,369.0,403.4,355.8,350.2,364.4,372.9,345.6,556.9,337.1,525.8,334.7,585.2,322.2,550.9,313.4,405.7,316.5,297.7,337.2,487.0,298.4,614.8,286.8,421.9,538.5,581.7,515.9,413.6,459.4,426.1,417.1,523.4,446.0,497.4,409.8,429.2,354.0,474.4,346.0,448.4,456.5,377.5,353.5,559.8,322.6,490.6,562.4,487.2,542.0,483.3,534.8,480.7,521.7,412,271,227,412,1
"Image may contain: 1 person, closeup",True,375,640,https://scontent-syd2-1.cdninstagram.com/vp/605091284b3f87b9961e6ffbfebb9634/5D055D1C/t51.2885-15/e35/37117088_295839201185923_8355121772080660480_n.jpg?_nc_ht=scontent-syd2-1.cdninstagram.com,1323,62,1,607,464456598,False,65,angi_elle,BkcQMDsAXik,1529916398,0.0,0.0,0.0,22.0,low,0.14,0.0,0.002,0.0,0.0,0.027,0.965,0.0,0.006,goodExposure,0.47,0.0,0.0,0.0,female,NoGlasses,0.04,0.56,0.57,0.19,0.49,0.8,0.39,False,0.0,1.4,-4.3,True,True,low,0.29,False,False,False,0.027,286.0,78.0,299.4,73.3,274.4,71.9,286.8,64.6,367.5,79.6,353.4,75.2,380.1,72.0,365.8,65.1,305.5,48.2,257.2,48.6,346.1,47.9,395.2,52.1,289.5,166.3,360.0,166.0,304.6,123.8,309.8,107.0,345.7,127.6,336.8,107.2,315.0,76.6,334.1,77.3,320.9,120.8,288.7,69.8,365.2,69.9,321.0,188.7,322.1,176.6,323.7,162.6,324.2,152.6,193,228,20,193,1
"Image may contain: 1 person, sitting, child and outdoor",True,1080,1080,https://scontent-syd2-1.cdninstagram.com/vp/995a5a3994904bdb47cfbff8cd54bf76/5D26E7F4/t51.2885-15/e35/34604285_191697291398063_7575597882305150976_n.jpg?_nc_ht=scontent-syd2-1.cdninstagram.com,244,9,1,165,2016231755,False,641,jesusog60,BkGTHCcBOOX,1529179732,0.0,0.0,0.0,21.0,low,0.0,0.0,0.0,0.0,0.0,0.0,0.998,0.002,0.0,goodExposure,0.59,0.1,0.1,0.1,male,NoGlasses,0.0,0.48,0.17,0.92,0.12,0.48,0.78,False,0.0,15.7,-0.5,True,True,low,0.21,False,False,False,0.0,738.5,316.9,750.3,315.4,728.4,309.7,741.1,305.7,809.5,336.7,799.3,330.1,821.2,334.8,811.6,326.0,761.6,298.6,716.9,286.0,799.7,309.1,843.1,325.6,725.1,393.6,782.4,408.5,743.7,363.5,755.9,351.1,786.0,373.2,784.3,358.5,767.1,323.3,787.5,328.4,765.5,367.8,740.1,310.0,809.0,329.1,751.3,414.2,754.3,403.6,753.7,401.1,755.3,394.5,170,680,275,170,1
Image may contain: 1 person,True,1349,1080,https://scontent-syd2-1.cdninstagram.com/vp/2b7e8b68ca010504c573c1e68c0b2285/5D27C742/t51.2885-15/e35/34189094_1828265854135019_2750583634309152768_n.jpg?_nc_ht=scontent-syd2-1.cdninstagram.com,74,4,659,0,2302620427,False,435,npchi2811,BkG_CLSlNQj,1529202761,0.0,0.0,0.0,22.0,medium,0.31,0.0,0.002,0.0,0.0,0.027,0.719,0.252,0.0,goodExposure,0.66,0.0,0.0,0.0,female,NoGlasses,0.09,0.94,0.11,0.96,0.22,0.26,0.17,False,0.0,-18.5,-14.5,True,True,low,0.1,False,False,False,0.027,629.1,573.9,637.3,568.1,618.8,573.8,627.5,569.0,681.4,555.5,671.8,555.1,688.5,549.3,679.7,550.5,635.5,549.2,603.9,557.5,659.8,540.9,696.4,522.3,645.0,622.7,697.9,606.2,646.0,600.9,648.4,588.1,683.1,590.5,671.1,580.3,647.9,565.1,662.5,559.9,659.7,595.5,626.4,571.7,677.5,553.2,674.1,628.8,671.5,620.7,672.2,621.3,670.4,615.3,124,599,527,124,1
"Image may contain: 2 people, beard and outdoor",True,1350,1080,https://scontent-syd2-1.cdninstagram.com/vp/c363137094f99e05a492f9cfb054dc25/5D04B36F/t51.2885-15/e35/35414982_578636719173412_8683660674003369984_n.jpg?_nc_ht=scontent-syd2-1.cdninstagram.com,100,6,552,7,1540361905,False,498,emanuelebruno17,BkItSWlHhoq,1529260565,0.0,0.0,0.0,40.0,low,0.17,0.006,0.141,0.0,0.0,0.0,0.796,0.056,0.0,goodExposure,0.53,0.9,0.9,0.9,male,NoGlasses,0.31,0.98,0.09,0.56,0.99,0.35,0.0,False,0.0,6.4,-1.0,True,False,low,0.0,False,False,False,0.0,446.9,776.7,476.9,772.7,419.6,764.0,449.4,754.9,631.6,801.0,603.3,788.7,661.7,795.7,630.1,778.0,503.2,747.7,372.1,731.8,589.0,757.8,706.8,774.1,430.0,980.7,604.3,1004.5,464.7,903.9,483.5,870.9,588.3,914.9,571.7,882.8,513.2,785.0,572.5,791.8,529.5,919.3,447.4,761.9,633.5,788.3,514.0,1033.2,518.2,1006.6,522.4,999.7,523.2,983.7,454,302,659,454,1
"Image may contain: 1 person, sky, outdoor, closeup and nature",True,600,480,https://scontent-syd2-1.cdninstagram.com/vp/3d972a6e0ebd3ed16b92df2ca0eb913d/5CEC1E46/t51.2885-15/e35/35421888_451228658678641_4987363724021989376_n.jpg?_nc_ht=scontent-syd2-1.cdninstagram.com,72,0,553,516,1503364217,False,515,gutocruz89,BkQSPhHALtp,1529514821,0.0,0.0,0.0,32.0,low,0.0,0.0,0.0,0.0,0.0,1.0,0.0,0.0,0.0,goodExposure,0.55,0.6,0.6,0.6,male,NoGlasses,0.13,1.0,0.01,0.15,0.68,0.85,0.02,False,0.0,2.9,-0.6,False,False,low,0.0,False,False,False,1.0,121.3,277.7,133.1,276.1,108.0,276.1,121.5,269.8,200.6,279.5,187.9,277.5,212.9,279.3,202.0,272.4,140.3,260.4,86.6,267.0,177.4,261.6,232.7,268.8,117.0,352.5,191.4,355.4,125.6,314.0,137.9,298.9,184.4,317.2,174.3,300.7,143.4,278.5,170.3,279.8,155.8,312.6,122.9,273.5,201.4,276.7,154.1,368.8,154.1,359.4,154.5,346.7,155.1,340.2,175,70,225,175,1
Image may contain: 1 person,True,1080,1080,https://scontent-syd2-1.cdninstagram.com/vp/12911c6f31354d521beea1d30fc2f4bf/5D1F5323/t51.2885-15/e35/14478417_1455116011171160_5628441615048638464_n.jpg?_nc_ht=scontent-syd2-1.cdninstagram.com,25,0,513,2,2951545691,False,842,morelcia_morelli,BKwVUJ8jkTS,1474755599,0.0,0.0,0.0,30.0,medium,0.49,0.0,0.001,0.0,0.0,0.011,0.987,0.001,0.0,goodExposure,0.32,0.0,0.0,0.0,female,NoGlasses,0.03,0.0,1.0,0.64,0.46,0.1,0.28,False,0.0,-10.6,-4.0,True,True,low,0.07,False,False,False,0.011,498.8,200.0,509.2,195.5,488.3,197.8,498.1,193.6,563.4,186.3,551.5,187.8,572.2,180.5,561.2,180.8,512.0,180.6,471.3,185.6,539.1,174.9,584.9,160.6,514.8,263.6,571.4,253.6,517.2,235.2,519.4,221.4,555.0,229.0,544.8,215.2,520.1,196.5,538.7,192.6,534.7,229.3,498.7,196.6,560.2,184.5,543.3,269.1,541.8,260.4,541.5,262.7,540.1,256.0,146,462,151,146,1
Image may contain: 3 people,False,1080,1080,https://scontent-syd2-1.cdninstagram.com/vp/858e0304bc661447a7986db05c7730df/5D28DB5C/t51.2885-15/e35/14350873_184708145297136_7868683830654140416_n.jpg?_nc_ht=scontent-syd2-1.cdninstagram.com,93,1,1,178,220123859,False,888,nensyshenovna,BKxBh1KBZwH,1474778780,0.0,0.0,0.0,33.0,low,0.13,0.0,0.0,0.0,0.0,1.0,0.0,0.0,0.0,goodExposure,0.54,0.0,0.0,0.0,female,NoGlasses,0.09,0.99,0.07,0.62,0.44,0.6,0.09,False,0.0,-2.0,-4.6,True,True,high,0.88,False,False,False,1.0,294.0,540.5,301.1,538.2,286.8,537.2,294.2,534.6,334.5,540.2,326.2,537.9,340.9,536.6,332.9,533.8,305.7,528.0,278.1,528.7,322.0,527.6,347.1,525.8,297.9,577.9,332.8,577.7,302.8,562.4,305.7,555.4,327.9,563.4,322.2,555.1,309.6,538.7,319.7,538.5,315.2,563.8,293.1,537.0,332.1,536.5,316.7,590.2,315.9,583.6,315.4,579.9,315.1,577.0,88,270,514,88,3
"Image may contain: 1 person, ocean, sky, child, outdoor and water",True,1080,1080,https://scontent-syd2-1.cdninstagram.com/vp/230d9aec61f55158f5013ab73895340e/5D07B94E/t51.2885-15/e35/37774514_284889782092261_3920809587921387520_n.jpg?_nc_ht=scontent-syd2-1.cdninstagram.com,130,3,875,415,4568441299,False,398,_emanuela.def_,Bl1Ik-OnhJB,1532898752,0.0,0.0,0.0,22.0,low,0.1,0.0,0.001,0.0,0.0,0.019,0.979,0.001,0.0,goodExposure,0.44,0.0,0.0,0.0,female,NoGlasses,0.02,0.68,0.1,1.0,0.03,0.06,0.63,False,0.0,-14.0,18.8,True,True,low,0.0,False,False,False,0.019,621.9,437.1,625.5,435.3,618.4,437.0,621.4,434.5,643.2,433.4,639.5,433.0,645.7,431.9,642.2,430.9,629.5,430.1,613.1,433.8,638.0,428.7,650.0,426.8,628.2,457.1,646.7,453.5,629.9,446.8,630.7,441.8,643.5,443.9,639.9,439.6,630.3,434.5,636.5,433.3,638.1,442.5,621.2,436.0,642.3,432.1,640.8,459.5,639.9,456.8,638.7,453.5,638.1,451.2,47,611,420,47,1
Image may contain: 1 person,True,1350,1080,https://scontent-syd2-1.cdninstagram.com/vp/893478105cba5995b148a13602ab442b/5CF004A0/t51.2885-15/e35/14718295_322577684784497_5777403029472935936_n.jpg?_nc_ht=scontent-syd2-1.cdninstagram.com,38,2,513,2,2951545691,False,842,morelcia_morelli,BL9OKVLjH9L,1477335540,0.0,0.0,0.0,22.0,medium,0.36,0.0,0.0,0.0,0.0,0.0,0.998,0.001,0.0,goodExposure,0.69,0.0,0.0,0.0,female,NoGlasses,0.13,0.6,0.86,0.71,0.36,0.34,0.14,False,0.0,2.3,-4.2,True,True,low,0.06,False,False,False,0.0,297.6,484.7,348.2,466.7,254.3,449.5,301.4,428.2,587.2,493.2,528.1,475.8,639.9,466.1,585.2,439.4,369.6,415.9,181.5,374.4,488.9,433.0,718.7,407.1,309.3,739.5,565.8,744.9,353.5,653.0,371.0,610.3,506.1,667.4,488.2,616.3,395.7,483.8,469.8,486.0,424.5,676.0,306.3,453.5,595.5,461.8,429.1,839.8,427.2,803.2,430.6,769.7,432.1,753.2,629,125,294,629,1
"Image may contain: 1 person, outdoor",False,1080,1080,https://scontent-syd2-1.cdninstagram.com/vp/55f4afd2bd27cab6f0820dce740c2cbc/5CEEDBB7/t51.2885-15/e35/37071061_451820361949441_3752191074550939648_n.jpg?_nc_ht=scontent-syd2-1.cdninstagram.com,302,26,409,28,1554076479,False,22,muscle__woo,BldB90rlRAU,1532089979,0.0,0.0,0.0,24.0,low,0.0,0.0,0.0,0.0,0.0,0.989,0.0,0.011,0.0,goodExposure,0.58,0.1,0.1,0.1,male,NoGlasses,0.05,0.96,0.3,0.91,0.13,0.26,0.15,False,0.0,0.6,-8.0,False,False,low,0.0,False,False,False,0.989,576.5,434.6,579.8,434.1,573.1,434.2,576.7,433.7,601.0,434.7,597.6,434.1,605.4,434.5,601.4,433.7,582.5,427.8,567.1,428.3,593.4,428.0,611.7,428.8,576.6,458.1,601.9,458.0,580.1,448.4,582.9,442.6,597.3,448.5,594.4,442.4,585.6,434.1,591.6,434.3,587.3,447.0,575.8,433.7,601.0,433.9,588.3,463.6,588.1,460.5,588.1,457.0,587.9,455.4,55,561,418,55,1
"Image may contain: 1 person, closeup",False,1080,1080,https://scontent-syd2-1.cdninstagram.com/vp/d517d745bef295949facce28f6f435cd/5D08D4DC/t51.2885-15/e35/36911089_280783722470428_7352118707985842176_n.jpg?_nc_ht=scontent-syd2-1.cdninstagram.com,132,6,2,029,3999015867,False,269,jaqqiesr,BllZVCKA6mG,1532370663,0.0,0.0,0.0,21.0,medium,0.45,0.0,0.001,0.0,0.0,0.973,0.026,0.0,0.0,goodExposure,0.71,0.0,0.0,0.0,female,NoGlasses,0.33,0.37,0.92,0.93,0.18,0.13,0.23,False,0.0,33.7,-27.1,False,True,medium,0.5,False,False,False,0.973,377.2,399.0,395.7,402.4,366.2,384.4,386.6,386.0,474.8,451.5,461.5,437.7,495.5,454.4,482.8,436.6,412.2,366.9,363.9,344.8,466.2,392.9,544.7,443.9,331.8,498.5,418.6,547.8,357.9,458.8,380.0,442.9,414.5,495.9,416.7,468.7,407.8,411.4,435.1,425.3,376.1,467.6,383.6,391.8,482.0,445.0,355.7,537.5,362.2,525.5,361.3,523.3,365.6,513.4,255,272,340,255,1
"Image may contain: 1 person, standing and outdoor",True,1080,1080,https://scontent-syd2-1.cdninstagram.com/vp/87df6d93cad8fd160fae279709418e4c/5D2767D0/t51.2885-15/e35/36877749_997534080424530_8631603634561351680_n.jpg?_nc_ht=scontent-syd2-1.cdninstagram.com,105,5,876,415,4568441299,False,398,_emanuela.def_,BlOyIcznm6s,1531611915,0.0,0.0,0.0,30.0,low,0.0,0.0,0.002,0.0,0.0,0.622,0.376,0.0,0.0,goodExposure,0.62,0.0,0.0,0.0,female,NoGlasses,0.04,0.98,0.08,0.81,0.44,0.46,0.09,False,0.0,19.3,2.0,True,True,low,0.0,False,False,False,0.622,802.7,338.1,808.6,338.0,798.6,334.6,804.4,333.6,836.2,348.6,831.4,345.5,841.4,347.7,837.3,343.9,814.3,331.2,793.4,325.4,830.7,337.0,850.5,344.0,791.5,369.5,823.9,379.4,802.4,357.9,808.1,352.5,824.3,363.2,823.0,355.7,814.5,341.1,824.8,343.8,815.0,357.7,804.9,336.2,837.3,346.1,806.7,379.5,808.0,375.3,808.0,375.0,809.0,372.6,78,776,318,78,1
"Image may contain: 1 person, sky and outdoor",True,810,1080,https://scontent-syd2-1.cdninstagram.com/vp/32be7d568ff1dc176a02f12790f56847/5D024274/t51.2885-15/e35/36938419_439628149871523_1626030049389969408_n.jpg?_nc_ht=scontent-syd2-1.cdninstagram.com,52,0,553,516,1503364217,False,515,gutocruz89,BlVyaQyBkOB,1531846942,1.0,0.0,0.0,30.0,low,0.0,0.0,0.0,0.0,0.0,1.0,0.0,0.0,0.0,goodExposure,0.53,0.1,0.6,0.1,male,Sunglasses,0.16,0.94,0.29,0.74,0.34,0.46,0.12,False,0.0,5.0,-4.2,True,True,low,0.0,False,False,False,1.0,200.8,447.2,215.8,441.6,187.8,441.5,199.8,431.9,299.4,455.7,283.7,447.4,316.5,452.9,301.7,441.0,234.8,414.8,152.8,417.5,275.5,418.1,346.2,439.2,198.8,542.1,289.6,546.1,208.6,493.3,219.5,472.6,274.9,500.1,266.5,478.0,231.1,443.7,263.8,446.6,238.2,491.3,199.0,438.0,295.7,448.1,239.6,567.2,241.1,555.2,242.5,543.3,243.2,532.8,219,135,381,219,1
Image may contain: 1 person,True,1080,1080,https://scontent-syd2-1.cdninstagram.com/vp/509b19affac9c2fb542d5ae0bc3b61a8/5D19E884/t51.2885-15/e35/37340412_2132285196983691_7785041580242501632_n.jpg?_nc_ht=scontent-syd2-1.cdninstagram.com,794,44,1,126,4800436891,False,961,shadows_18,BlYwoAtHmUT,1531946670,0.0,0.0,0.0,29.0,low,0.08,0.001,0.003,0.001,0.001,0.016,0.952,0.017,0.01,goodExposure,0.64,0.0,0.0,0.0,female,NoGlasses,0.09,0.99,0.08,0.88,0.31,0.37,0.06,False,0.0,5.4,-6.0,True,False,low,0.0,False,False,False,0.016,456.7,394.3,477.7,391.6,439.2,385.8,459.0,379.7,574.5,404.3,550.8,397.3,595.8,396.8,574.9,387.8,483.0,356.8,417.6,359.0,541.2,356.3,615.4,377.9,448.2,493.3,555.2,503.8,464.3,446.4,483.3,426.0,546.9,453.8,530.5,427.1,495.2,391.5,526.1,391.9,503.2,438.6,461.2,386.6,574.3,395.4,503.3,513.4,504.3,499.7,503.9,494.2,505.1,484.8,245,386,318,245,1
"Image may contain: 1 person, ocean, sky, text, outdoor and water",True,712,1080,https://scontent-syd2-1.cdninstagram.com/vp/053d55ec76459ec70197dad4dd06eb5d/5D1F9B0F/t51.2885-15/e35/37146663_1858801990846214_8230591226852671488_n.jpg?_nc_ht=scontent-syd2-1.cdninstagram.com,69,0,801,676,3898067184,False,489,quetzalcoatl_mty,BlZLF8AnTgB,1531960546,0.0,0.0,0.0,51.0,medium,0.4,0.001,0.026,0.001,0.0,0.106,0.863,0.002,0.0,underExposure,0.15,0.6,0.6,0.1,male,NoGlasses,0.17,0.98,0.27,0.42,0.88,0.46,0.01,False,0.0,1.0,6.7,False,False,low,0.0,False,False,False,0.106,224.8,192.6,237.9,190.3,213.9,188.3,225.3,183.7,294.7,196.9,283.1,192.9,307.0,195.1,295.2,187.8,253.3,177.1,196.3,175.9,269.9,179.9,320.2,177.9,222.5,267.7,293.8,274.5,235.4,232.0,247.9,217.4,287.2,235.3,279.1,217.1,253.1,192.3,272.5,192.7,265.3,231.9,221.6,188.2,291.7,191.9,260.0,289.9,260.8,278.4,261.3,269.5,261.0,261.7,171,173,143,171,1
"Image may contain: 2 people, people standing, beard and outdoor",True,1350,1080,https://scontent-syd2-1.cdninstagram.com/vp/77b05e7ad4c46ab77b51e0022db2182b/5D2257A8/t51.2885-15/e35/38096768_293040897912014_5048445666573942784_n.jpg?_nc_ht=scontent-syd2-1.cdninstagram.com,253,8,1,528,184518387,False,273,eldopleasesaythebaby,Bl_MU_-gB72,1533236262,1.0,0.0,0.0,31.0,low,0.04,0.0,0.0,0.0,0.0,0.894,0.105,0.0,0.0,overExposure,0.79,0.4,0.4,0.1,male,ReadingGlasses,0.22,0.94,0.17,0.58,0.71,0.52,0.09,False,0.0,13.9,2.5,False,False,low,0.2,False,False,False,0.894,252.0,270.1,267.7,268.2,237.7,263.4,255.7,255.9,337.0,287.5,322.8,280.0,351.4,286.2,340.4,274.1,287.9,247.7,223.4,241.8,320.6,254.0,380.5,272.4,231.3,360.9,307.1,375.9,256.0,317.1,270.5,298.7,310.2,328.3,307.4,308.2,282.9,273.1,306.4,277.4,287.2,312.1,253.2,263.2,337.2,280.2,264.5,389.0,268.3,376.8,272.8,360.9,275.9,349.9,205,181,214,205,2
"Image may contain: 1 person, closeup",True,1080,1080,https://scontent-syd2-1.cdninstagram.com/vp/90341ec90add1a5d519a5c6a2a0be2d7/5D18C4E8/t51.2885-15/e35/38443961_1038930756265979_5239209868841189376_n.jpg?_nc_ht=scontent-syd2-1.cdninstagram.com,108,2,876,415,4568441299,False,398,_emanuela.def_,BmCABhAnsb8,1533330475,0.0,0.0,0.0,23.0,low,0.22,0.0,0.0,0.0,0.0,0.001,0.998,0.0,0.0,goodExposure,0.45,0.0,0.0,0.0,female,NoGlasses,0.41,0.93,0.16,0.98,0.34,0.12,0.08,False,0.0,-4.9,-3.7,True,True,low,0.13,False,False,False,0.001,411.3,421.3,430.8,409.7,388.8,413.8,406.7,400.9,531.1,412.2,509.2,405.2,553.0,403.8,530.0,395.0,428.0,375.0,356.9,383.9,493.7,369.8,577.0,379.7,437.5,533.3,530.3,523.0,439.1,474.2,443.7,448.6,507.6,465.0,494.7,442.2,451.4,411.0,481.6,408.6,467.8,458.3,414.0,407.9,531.0,401.1,484.3,546.3,481.4,531.5,480.9,514.1,480.2,502.1,259,346,332,259,1
"Image may contain: 2 people, outdoor",True,1080,1080,https://scontent-syd2-1.cdninstagram.com/vp/e03add5964867cf1f1fb41e8e1c41108/5D28E803/t51.2885-15/e35/38080921_255164111767385_2020109160112193536_n.jpg?_nc_ht=scontent-syd2-1.cdninstagram.com,912,59,1,126,4800436891,False,961,shadows_18,BmCqW66H7yy,1533352670,0.0,0.0,0.0,10.0,low,0.0,0.0,0.004,0.0,0.0,0.001,0.963,0.03,0.001,goodExposure,0.33,0.0,0.0,0.0,female,NoGlasses,0.09,0.99,0.15,0.22,0.54,0.75,0.05,False,0.0,1.2,-1.8,False,False,low,0.0,False,False,False,0.001,474.0,511.7,488.5,508.2,461.4,506.3,475.1,502.1,567.9,513.1,550.3,509.5,582.7,506.2,566.0,500.1,495.9,483.6,439.4,480.4,539.3,485.4,602.4,473.4,475.0,600.0,556.0,602.3,484.2,559.7,498.4,538.5,549.7,557.7,541.2,541.3,504.8,510.8,532.4,510.2,517.8,556.3,479.0,505.5,570.2,503.7,515.5,629.3,515.8,612.2,514.9,597.3,515.0,584.4,206,416,448,206,1
"Limage contient peut-tre: 1 personne, arbre et plein air",True,1080,1080,https://scontent-syd2-1.cdninstagram.com/vp/9bd4148bd353067855f2f5651d682b77/5D0BB07A/t51.2885-15/e35/37550943_1123244481157439_5790868091248312320_n.jpg?_nc_ht=scontent-syd2-1.cdninstagram.com,1540,108,1,126,4800436891,False,961,shadows_18,BmEev1Pn37n,1533413692,0.0,0.0,0.0,17.0,low,0.0,0.0,0.001,0.0,0.0,0.001,0.866,0.13,0.001,underExposure,0.22,0.0,0.0,0.0,female,NoGlasses,0.09,1.0,0.06,0.86,0.28,0.4,0.03,False,0.0,5.3,21.2,True,True,low,0.09,False,False,False,0.001,495.3,491.5,510.6,488.4,480.3,485.1,496.5,478.3,576.2,497.8,563.3,491.5,587.7,493.0,577.1,487.8,529.3,470.6,464.2,460.1,566.7,469.5,605.1,469.7,484.4,589.3,555.8,594.8,506.5,542.0,520.2,524.7,563.4,549.5,558.1,529.6,529.1,491.4,551.1,493.8,542.2,547.0,497.0,484.6,574.3,491.5,524.2,630.2,526.0,612.4,530.5,585.1,532.7,572.3,205,428,437,205,1
"Image may contain: 1 person, plant, flower, grass, outdoor and nature",True,1080,1080,https://scontent-syd2-1.cdninstagram.com/vp/50c81e3271bdd9554cb7263144627cf1/5D04B063/t51.2885-15/e35/37424167_916118731926651_4885170204188868608_n.jpg?_nc_ht=scontent-syd2-1.cdninstagram.com,525,20,2,239,392595219,False,282,ramona7777,BmHJei3H6Je,1533503203,0.0,0.0,0.0,31.0,medium,0.43,0.0,0.002,0.0,0.0,0.428,0.569,0.001,0.001,goodExposure,0.72,0.0,0.0,0.0,female,NoGlasses,0.05,1.0,0.03,0.23,0.42,0.86,0.09,False,0.0,-15.6,12.7,True,True,medium,0.53,False,False,False,0.428,501.9,366.7,504.7,364.8,498.5,366.1,501.2,363.3,517.2,362.5,513.8,362.4,519.5,360.0,515.9,359.2,504.6,358.7,493.2,362.9,512.7,355.4,520.0,353.6,506.3,385.3,519.9,381.6,507.1,377.3,508.1,372.9,517.9,373.9,515.5,371.1,507.2,363.9,512.0,362.6,513.3,375.4,501.3,365.0,516.4,361.0,516.3,390.1,515.6,387.0,514.8,383.2,514.1,381.2,41,491,353,41,1
Image may contain: one or more people and closeup,True,1350,1080,https://scontent-syd2-1.cdninstagram.com/vp/ca576a3a8c33f2c476ae6a651b82665a/5D0C6023/t51.2885-15/e35/39281832_220348925490791_7510514473342337024_n.jpg?_nc_ht=scontent-syd2-1.cdninstagram.com,112,3,949,376,250398806,False,312,suzanalinli,BmloeWrA_vX,1534526087,0.0,0.0,0.0,21.0,medium,0.38,0.0,0.0,0.0,0.0,0.0,0.0,0.0,0.999,overExposure,0.8,0.0,0.0,0.0,female,NoGlasses,0.08,0.58,0.51,0.96,0.37,0.18,0.2,False,0.0,-1.2,-5.7,True,True,medium,0.57,False,False,False,0.0,235.3,570.1,303.6,550.5,176.9,546.4,239.1,511.4,606.2,559.4,542.8,545.6,668.7,535.2,606.0,500.3,321.9,440.5,86.7,479.1,491.6,429.9,754.9,474.4,280.4,951.6,577.8,935.5,306.0,762.2,352.0,688.0,531.9,753.1,485.4,682.4,359.5,557.4,456.3,548.5,402.4,712.0,245.2,535.9,596.1,533.3,418.9,1036.8,418.2,998.8,435.9,923.5,439.8,895.2,831,4,309,831,1
"Image may contain: 1 person, standing, sunglasses, outdoor, water and nature",True,1350,1080,https://scontent-syd2-1.cdninstagram.com/vp/8ca0dd94efb7abb24be7faa8ae679aae/5D065534/t51.2885-15/e35/38511407_226914871307080_2294526083921346560_n.jpg?_nc_ht=scontent-syd2-1.cdninstagram.com,159,1,786,949,1702950354,False,125,yanchik_0711,BmojjEhlVJR,1534624168,1.0,0.0,0.0,24.0,low,0.0,0.0,0.0,0.0,0.0,0.0,0.995,0.001,0.003,goodExposure,0.57,0.0,0.0,0.0,female,Sunglasses,0.13,0.21,0.94,0.53,0.32,0.45,0.38,False,0.0,-3.2,-8.6,True,True,low,0.0,False,False,False,0.0,536.7,415.2,549.8,406.2,521.1,409.3,534.3,402.6,639.6,403.1,618.9,400.0,654.9,394.1,634.6,390.7,556.4,379.8,494.7,384.4,604.4,371.6,678.6,374.1,552.6,523.5,629.1,516.3,552.1,463.4,558.7,444.8,619.1,460.3,604.8,441.1,566.4,406.6,597.2,404.1,581.3,454.2,536.7,406.9,638.4,395.1,590.9,530.0,588.3,516.1,587.1,505.3,586.2,494.5,237,469,338,237,1
"Image may contain: 4 people, closeup",True,770,1080,https://scontent-syd2-1.cdninstagram.com/vp/b1bcb28321e61208a828f29a6755df2a/5D255F5C/t51.2885-15/e35/38022162_263358737610653_4856094984991932416_n.jpg?_nc_ht=scontent-syd2-1.cdninstagram.com,129,2,158,1,8373657604,False,18,tmurf89,BmUqVrinxku,1533956640,0.0,0.0,0.0,32.0,high,0.75,0.0,0.0,0.0,0.0,1.0,0.0,0.0,0.0,goodExposure,0.65,0.1,0.1,0.1,male,NoGlasses,0.37,0.75,0.78,0.59,0.3,0.42,0.17,False,0.0,6.5,13.0,False,False,low,0.29,False,False,False,1.0,73.4,453.1,95.0,448.1,55.2,444.3,75.3,438.6,193.3,464.0,175.8,459.0,213.4,462.1,195.8,450.3,113.3,424.9,29.0,414.9,179.8,430.1,243.3,444.4,54.3,556.7,178.8,571.4,84.7,520.7,105.9,498.8,172.9,531.3,166.7,503.0,127.1,455.1,158.4,458.9,138.6,522.5,73.4,446.4,189.9,457.3,125.1,595.8,125.0,578.5,123.3,576.4,123.5,567.2,261,0,377,258,3
"Limage contient peut-tre: 1 personne, gros plan",True,1080,1080,https://scontent-syd2-1.cdninstagram.com/vp/66fbd9121033e7126db61046bd319af6/5CEF42AE/t51.2885-15/e35/38449834_889689211227433_8656013608741765120_n.jpg?_nc_ht=scontent-syd2-1.cdninstagram.com,1230,93,1,126,4800436891,False,961,shadows_18,BmWQp3Bnzmj,1534010282,0.0,0.0,0.0,9.0,low,0.12,0.0,0.023,0.0,0.001,0.003,0.729,0.002,0.242,goodExposure,0.58,0.0,0.0,0.0,female,NoGlasses,0.18,0.99,0.1,0.25,0.36,0.78,0.07,False,0.0,-6.6,-15.0,True,True,low,0.28,False,False,False,0.003,412.3,442.4,431.7,434.7,393.6,435.8,411.8,425.6,520.2,425.5,498.1,422.5,540.0,413.8,515.7,406.8,430.3,403.6,374.1,398.7,482.5,394.2,560.9,382.1,448.7,546.7,522.5,537.4,434.1,494.0,444.0,469.5,504.0,488.1,488.1,465.5,449.9,432.6,483.0,428.8,462.1,485.3,412.5,433.1,518.7,415.6,480.3,569.2,476.9,551.8,472.7,532.2,470.3,520.0,240,352,361,240,1
